{
   "retCode":1,
   "retVal":{
      "3001":{
         "sno":"3001",
         "sna":"逢甲大學",
         "tot":"100",
         "sbi":"42",
         "sarea":"西屯區",
         "mday":"20180828105128",
         "lat":"24.178695",
         "lng":"120.645010",
         "ar":"台中市福星路/逢甲路口(潮洋機車停車場)",
         "sareaen":"Xitun Dist.",
         "snaen":"Feng Chia University",
         "aren":"Fuxing Rd & Fengjia Rd Intersection",
         "bemp":"58",
         "act":"1"
      },
      "3002":{
         "sno":"3002",
         "sna":"秋紅谷",
         "tot":"96",
         "sbi":"72",
         "sarea":"西屯區",
         "mday":"20180828105140",
         "lat":"24.167898",
         "lng":"120.638895",
         "ar":"台中市朝富路/朝馬路口(國光客運朝馬站對面)",
         "sareaen":"Xitun Dist.",
         "snaen":"Maple Valley Park",
         "aren":"Chaofu Rd  & Chaoma Rd Intersection",
         "bemp":"23",
         "act":"1"
      },
      "3003":{
         "sno":"3003",
         "sna":"市政府(文心樓)",
         "tot":"64",
         "sbi":"37",
         "sarea":"西屯區",
         "mday":"20180828105122",
         "lat":"24.161438",
         "lng":"120.648701",
         "ar":"台中市文心路二段645號旁",
         "sareaen":"Xitun Dist.",
         "snaen":"Taichung City Hall (Wenxin Building)",
         "aren":"No.645, Sec. 2, Wenxin Rd",
         "bemp":"27",
         "act":"1"
      },
      "3004":{
         "sno":"3004",
         "sna":"漢翔福星北路口",
         "tot":"60",
         "sbi":"52",
         "sarea":"西屯區",
         "mday":"20180828105120",
         "lat":"24.185214",
         "lng":"120.644423",
         "ar":"漢翔路/福星北路交叉路口",
         "sareaen":"Xitun Dist.",
         "snaen":"Hanxiang Rd. / Fuxing N. Rd. ",
         "aren":"Hanxiang Rd & Fuxing N. Rd Intersection",
         "bemp":"8",
         "act":"1"
      },
      "3005":{
         "sno":"3005",
         "sna":"福星公園",
         "tot":"40",
         "sbi":"34",
         "sarea":"西屯區",
         "mday":"20180828105143",
         "lat":"24.172421",
         "lng":"120.6481",
         "ar":"寶慶街50巷/河南路二段301巷",
         "sareaen":"Xitun Dist.",
         "snaen":"Fuxing Park",
         "aren":"Ln. 50, Baoqing St & Ln. 301, Sec. 2, Henan Rd",
         "bemp":"6",
         "act":"1"
      },
      "3006":{
         "sno":"3006",
         "sna":"櫻花棒球場",
         "tot":"58",
         "sbi":"30",
         "sarea":"西屯區",
         "mday":"20180828105118",
         "lat":"24.168671",
         "lng":"120.653109",
         "ar":"櫻花路/洛陽路口",
         "sareaen":"Xitun Dist.",
         "snaen":"Cherry Blossoms Baseball Field",
         "aren":"Yinghua Rd & Luoyang Rd Intersection",
         "bemp":"28",
         "act":"1"
      },
      "3007":{
         "sno":"3007",
         "sna":"重慶公園",
         "tot":"40",
         "sbi":"13",
         "sarea":"西屯區",
         "mday":"20180828105122",
         "lat":"24.1658893012632",
         "lng":"120.655551552772",
         "ar":"西屯路二段/天水西六街",
         "sareaen":"Xitun Dist.",
         "snaen":"Chongqing Park",
         "aren":"Sec. 2, Situn Rd & Tianshui W. 6th St",
         "bemp":"27",
         "act":"1"
      },
      "3008":{
         "sno":"3008",
         "sna":"頂何厝",
         "tot":"38",
         "sbi":"18",
         "sarea":"西屯區",
         "mday":"20180828105128",
         "lat":"24.159079",
         "lng":"120.655825",
         "ar":"臺灣大道二段/東興路三段路口",
         "sareaen":"Xitun Dist.",
         "snaen":"Ding He Cuo",
         "aren":"Sec. 2, Taiwan Blvd & Sec. 3, Dongxing Rd  Intersection",
         "bemp":"20",
         "act":"1"
      },
      "3009":{
         "sno":"3009",
         "sna":"公益大英街口",
         "tot":"40",
         "sbi":"26",
         "sarea":"南屯區",
         "mday":"20180828105132",
         "lat":"24.150814",
         "lng":"120.648481",
         "ar":"公益路二段/大英街口(星巴克前)",
         "sareaen":"Nantun Dist.",
         "snaen":"Gongyi Rd. / Daying St.",
         "aren":"Sec. 2, Gongyi Rd & Daying St Intersection",
         "bemp":"14",
         "act":"1"
      },
      "3010":{
         "sno":"3010",
         "sna":"新光/遠百",
         "tot":"52",
         "sbi":"21",
         "sarea":"西屯區",
         "mday":"20180828105143",
         "lat":"24.166146",
         "lng":"120.642929",
         "ar":"臺灣大道三段/惠來路二段",
         "sareaen":"Xitun Dist.",
         "snaen":"Mitsukoshi Shin Kong / Top City Dept. Store",
         "aren":"Sec. 3, Taiwan Blvd & Sec. 2, Hueilai Rd",
         "bemp":"31",
         "act":"1"
      },
      "3011":{
         "sno":"3011",
         "sna":"青海逢甲路口",
         "tot":"44",
         "sbi":"15",
         "sarea":"西屯區",
         "mday":"20180828105119",
         "lat":"24.174652",
         "lng":"120.639231",
         "ar":"青海路二段/逢甲路口",
         "sareaen":"Xitun Dist.",
         "snaen":"Qinghai Rd. / Fengjia Rd.",
         "aren":"Sec. 2, Qinghai Rd & Fengjia Rd Intersection",
         "bemp":"29",
         "act":"1"
      },
      "3012":{
         "sno":"3012",
         "sna":"忠明國小",
         "tot":"46",
         "sbi":"21",
         "sarea":"西區",
         "mday":"20180828105128",
         "lat":"24.156769",
         "lng":"120.659171",
         "ar":"臺灣大道二段/忠明南路口",
         "sareaen":"West Dist.",
         "snaen":"Chung-Ming Elementary School ",
         "aren":"Sec. 2, Taiwan Blvd & Zhongming S. Rd Intersection",
         "bemp":"25",
         "act":"1"
      },
      "3013":{
         "sno":"3013",
         "sna":"大墩七街河南路口",
         "tot":"50",
         "sbi":"20",
         "sarea":"南屯區",
         "mday":"20180828105123",
         "lat":"24.144259",
         "lng":"120.639554",
         "ar":"大墩七街/河南路四段口",
         "sareaen":"Nantun Dist.",
         "snaen":"Dadun 7th St. / Henan Rd.",
         "aren":"Dadun 7th St & Sec. 4, Henan Rd Intersection",
         "bemp":"30",
         "act":"1"
      },
      "3014":{
         "sno":"3014",
         "sna":"臺中仁愛醫院",
         "tot":"50",
         "sbi":"22",
         "sarea":"中區",
         "mday":"20180828105122",
         "lat":"24.1437",
         "lng":"120.67822",
         "ar":"臺灣大道一段/興中街口",
         "sareaen":"Central Dist.",
         "snaen":"Taichung Jen-Ai Hospital",
         "aren":"Sec. 1, Taiwan Blvd & Xingzhong St Intersection",
         "bemp":"28",
         "act":"1"
      },
      "3015":{
         "sno":"3015",
         "sna":"博館育德路口",
         "tot":"66",
         "sbi":"10",
         "sarea":"北區",
         "mday":"20180828105117",
         "lat":"24.157464",
         "lng":"120.669111",
         "ar":"博館路/育德路口",
         "sareaen":"North Dist.",
         "snaen":"Boguan Rd. / Yude Rd.",
         "aren":"Boguan Rd & Yude Rd Intersection",
         "bemp":"55",
         "act":"1"
      },
      "3016":{
         "sno":"3016",
         "sna":"科博館/金典酒店",
         "tot":"54",
         "sbi":"30",
         "sarea":"西區",
         "mday":"20180828105129",
         "lat":"24.155525",
         "lng":"120.66304",
         "ar":"臺灣大道一段/健行路口",
         "sareaen":"West Dist.",
         "snaen":"National Museum of Natural Science/ The Splendor Hotel",
         "aren":"Sec. 1, Taiwan Blvd & Jianxing Rd",
         "bemp":"24",
         "act":"1"
      },
      "3017":{
         "sno":"3017",
         "sna":"中正國小",
         "tot":"46",
         "sbi":"38",
         "sarea":"西區",
         "mday":"20180828105143",
         "lat":"24.152483",
         "lng":"120.666281",
         "ar":"英才路/臺灣大道二段179巷",
         "sareaen":"West Dist.",
         "snaen":"Chung-Cheng Elementary School",
         "aren":"Yingcai Rd & Ln. 179, Sec. 2, Taiwan Blvd",
         "bemp":"8",
         "act":"1"
      },
      "3018":{
         "sno":"3018",
         "sna":"茄苳腳",
         "tot":"54",
         "sbi":"36",
         "sarea":"西區",
         "mday":"20180828105127",
         "lat":"24.150107",
         "lng":"120.671377",
         "ar":"臺灣大道一段/梅川東路二段",
         "sareaen":"West Dist.",
         "snaen":"Qie Dong Jiao",
         "aren":"Sec. 1, Taiwan Blvd & Sec. 2, Meichuan E. Rd",
         "bemp":"18",
         "act":"1"
      },
      "3019":{
         "sno":"3019",
         "sna":"萬壽棒球場",
         "tot":"52",
         "sbi":"26",
         "sarea":"西區",
         "mday":"20180828105138",
         "lat":"24.146568",
         "lng":"120.650534",
         "ar":"向上路一段/大進街口",
         "sareaen":"West Dist.",
         "snaen":"Wan-Shou Baseball Field",
         "aren":"Sec. 1, Xiangshang Rd & Dajin St Intersection",
         "bemp":"26",
         "act":"1"
      },
      "3020":{
         "sno":"3020",
         "sna":"公益公園",
         "tot":"48",
         "sbi":"34",
         "sarea":"西區",
         "mday":"20180828105130",
         "lat":"24.150423",
         "lng":"120.657475",
         "ar":"忠明南路/公益路口",
         "sareaen":"West Dist.",
         "snaen":"Gong Yi Park",
         "aren":"Zhongming S. Rd & Gongyi Rd  Intersection",
         "bemp":"14",
         "act":"1"
      },
      "3021":{
         "sno":"3021",
         "sna":"大墩文化中心",
         "tot":"40",
         "sbi":"0",
         "sarea":"西區",
         "mday":"20180817122022",
         "lat":"24.141249",
         "lng":"120.666531",
         "ar":"五權路/英才路口",
         "sareaen":"West Dist.",
         "snaen":"Dadun Cultural Center",
         "aren":"Wuquan Rd & Yingcai Rd Intersection",
         "bemp":"0",
         "act":"1"
      },
      "3022":{
         "sno":"3022",
         "sna":"英士公園",
         "tot":"82",
         "sbi":"25",
         "sarea":"北區",
         "mday":"20180828105136",
         "lat":"24.151149",
         "lng":"120.675577",
         "ar":"日興街/英士路口",
         "sareaen":"North Dist.",
         "snaen":"Ying Shi Park",
         "aren":"Rixing St & Yingshi Rd Intersection",
         "bemp":"56",
         "act":"1"
      },
      "3023":{
         "sno":"3023",
         "sna":"大隆東興路口",
         "tot":"48",
         "sbi":"27",
         "sarea":"西屯區",
         "mday":"20180828105123",
         "lat":"24.155731",
         "lng":"120.654096",
         "ar":"大隆路40號前",
         "sareaen":"Xitun Dist.",
         "snaen":"Dalong Rd./ Dongxing Rd.",
         "aren":"No.40, Dalong Rd",
         "bemp":"21",
         "act":"1"
      },
      "3024":{
         "sno":"3024",
         "sna":"文心森林公園",
         "tot":"48",
         "sbi":"0",
         "sarea":"南屯區",
         "mday":"20180725223217",
         "lat":"24.146743",
         "lng":"120.646119",
         "ar":"文心路一段/向上路二段口",
         "sareaen":"Nantun Dist.",
         "snaen":"Wen-Hsin Forest Park",
         "aren":"Sec. 1, Wenxin Rd  &  Sec. 2, Xiangshang Rd Intersection",
         "bemp":"0",
         "act":"1"
      },
      "3025":{
         "sno":"3025",
         "sna":"五權西文心路口",
         "tot":"42",
         "sbi":"11",
         "sarea":"南屯區",
         "mday":"20180828105137",
         "lat":"24.139937",
         "lng":"120.646885",
         "ar":"五權西路二段/文心路一段路口",
         "sareaen":"Nantun Dist.",
         "snaen":"Wuquan W. Rd./ Wenxin Rd.",
         "aren":"Sec. 2, Wuquan W. Rd & Sec. 1, Wenxin Rd Intersection",
         "bemp":"15",
         "act":"1"
      },
      "3026":{
         "sno":"3026",
         "sna":"臺中州廳",
         "tot":"42",
         "sbi":"26",
         "sarea":"西區",
         "mday":"20180828105123",
         "lat":"24.138299",
         "lng":"120.678756",
         "ar":"市府路/民權路口",
         "sareaen":"West Dist.",
         "snaen":"Taichung Prefectural Hall",
         "aren":"Shifu Rd & Minquan Rd Intersection",
         "bemp":"16",
         "act":"1"
      },
      "3027":{
         "sno":"3027",
         "sna":"臺中公園",
         "tot":"60",
         "sbi":"17",
         "sarea":"北區",
         "mday":"20180828105124",
         "lat":"24.142596",
         "lng":"120.684231",
         "ar":"公園路/自由路二段口",
         "sareaen":"North Dist.",
         "snaen":"Taichung Park ",
         "aren":"Gongyuan Rd & Sec. 2, Ziyou Rd Intersection",
         "bemp":"42",
         "act":"1"
      },
      "3028":{
         "sno":"3028",
         "sna":"臺中孔廟",
         "tot":"40",
         "sbi":"20",
         "sarea":"北區",
         "mday":"20180828105119",
         "lat":"24.153274",
         "lng":"120.689117",
         "ar":"雙十路二段/力行路口",
         "sareaen":"North Dist.",
         "snaen":"Confucius Temple",
         "aren":"Sec. 2, Shuangshi Rd & Lixing Rd Intersection",
         "bemp":"20",
         "act":"1"
      },
      "3029":{
         "sno":"3029",
         "sna":"育德梅川東路口",
         "tot":"40",
         "sbi":"23",
         "sarea":"北區",
         "mday":"20180828105126",
         "lat":"24.15748",
         "lng":"120.67547",
         "ar":"育德路/梅川東路三段口",
         "sareaen":"North Dist.",
         "snaen":"Yude Rd./ Meichuan E. Rd.",
         "aren":"Yude Rd & Sec.3, Meichuan E. Rd",
         "bemp":"17",
         "act":"1"
      },
      "3030":{
         "sno":"3030",
         "sna":"太原北中清路口",
         "tot":"40",
         "sbi":"19",
         "sarea":"北區",
         "mday":"20180828105142",
         "lat":"24.165115",
         "lng":"120.673279",
         "ar":"太原北路/中清路一段口",
         "sareaen":"North Dist.",
         "snaen":"Taiyuan N. Rd./ Zhongqing Rd.",
         "aren":"Taiyuan N. Rd & Sec. 1, Zhongqing Rd Intersection",
         "bemp":"21",
         "act":"1"
      },
      "3031":{
         "sno":"3031",
         "sna":"臺中教育大學",
         "tot":"36",
         "sbi":"16",
         "sarea":"西區",
         "mday":"20180828105127",
         "lat":"24.145214",
         "lng":"120.671185",
         "ar":"五權路/民權路口",
         "sareaen":"West Dist.",
         "snaen":"National Taichung University of Education",
         "aren":"Wuquan Rd & Minquan Rd Intersection",
         "bemp":"20",
         "act":"1"
      },
      "3032":{
         "sno":"3032",
         "sna":"學士育德路口",
         "tot":"56",
         "sbi":"38",
         "sarea":"北區",
         "mday":"20180828105138",
         "lat":"24.157757",
         "lng":"120.681155",
         "ar":"學士路/育德路口(中正停車場廣場)",
         "sareaen":"North Dist.",
         "snaen":"Xueshi Rd./ Yude Rd.",
         "aren":"Xueshi Rd &Yude Rd Intersection",
         "bemp":"18",
         "act":"1"
      },
      "3033":{
         "sno":"3033",
         "sna":"中山地政事務所",
         "tot":"34",
         "sbi":"16",
         "sarea":"西區",
         "mday":"20180828105131",
         "lat":"24.13654",
         "lng":"120.673707",
         "ar":"三民路一段/三民路一段156巷口",
         "sareaen":"West Dist.",
         "snaen":"Zhongshan Land Office",
         "aren":"Sec. 1, Sanmin Rd & Ln. 156, Sec. 1, Sanmin Rd Intersection",
         "bemp":"18",
         "act":"1"
      },
      "3034":{
         "sno":"3034",
         "sna":"臺中市民廣場",
         "tot":"64",
         "sbi":"35",
         "sarea":"西區",
         "mday":"20180828105117",
         "lat":"24.150621",
         "lng":"120.663045",
         "ar":"中興街/公益路口",
         "sareaen":"West Dist.",
         "snaen":"Taichung City Park",
         "aren":"Zhongxing St & Gongyi Rd  Intersection",
         "bemp":"27",
         "act":"1"
      },
      "3035":{
         "sno":"3035",
         "sna":"國立自然科學博物館",
         "tot":"56",
         "sbi":"22",
         "sarea":"北區",
         "mday":"20180828105141",
         "lat":"24.156199",
         "lng":"120.665901",
         "ar":"博館路101號對面",
         "sareaen":"North Dist.",
         "snaen":"National Museum of Natural Science（Guanqian Rd.）",
         "aren":"No.101, Boguan Rd",
         "bemp":"33",
         "act":"1"
      },
      "3036":{
         "sno":"3036",
         "sna":"經國園道",
         "tot":"58",
         "sbi":"28",
         "sarea":"西區",
         "mday":"20180828105136",
         "lat":"24.146778",
         "lng":"120.664773",
         "ar":"向上路一段/英才路口",
         "sareaen":"West Dist.",
         "snaen":"Greenway",
         "aren":"Sec. 1, Xiangshang Rd &  Yingcai Rd Intersection",
         "bemp":"29",
         "act":"1"
      },
      "3037":{
         "sno":"3037",
         "sna":"國立臺灣美術館",
         "tot":"48",
         "sbi":"21",
         "sarea":"西區",
         "mday":"20180828105118",
         "lat":"24.140682",
         "lng":"120.661836",
         "ar":"五權西路一段/美村路一段口",
         "sareaen":"West Dist.",
         "snaen":"National Taiwan Museum of Fine Arts",
         "aren":"Sec. 1, Wucyuan W. Rd &Sec. 1, Meicun Rd",
         "bemp":"27",
         "act":"1"
      },
      "3038":{
         "sno":"3038",
         "sna":"北區行政大樓",
         "tot":"48",
         "sbi":"17",
         "sarea":"北區",
         "mday":"20180828105127",
         "lat":"24.166078",
         "lng":"120.682416",
         "ar":"永興街/太原路二段口",
         "sareaen":"North Dist.",
         "snaen":"North District Administration Building",
         "aren":"Yongxing St & Sec. 2, Taiyuan Rd Intersection",
         "bemp":"31",
         "act":"1"
      },
      "3039":{
         "sno":"3039",
         "sna":"三光太原路口",
         "tot":"52",
         "sbi":"33",
         "sarea":"北屯區",
         "mday":"20180828105132",
         "lat":"24.164742 ",
         "lng":"120.696704 ",
         "ar":"三光巷/太原路三段口",
         "sareaen":"Beitun Dist.",
         "snaen":"Sanguang Rd. / Taiyuan Rd.",
         "aren":"Sanguang Rd & Sec. 3, Taiyuan Rd Intersection",
         "bemp":"19",
         "act":"1"
      },
      "3040":{
         "sno":"3040",
         "sna":"北屯兒童公園",
         "tot":"40",
         "sbi":"24",
         "sarea":"北屯區",
         "mday":"20180828105130",
         "lat":"24.170187",
         "lng":"120.694267",
         "ar":"興安路一段/北平路四段口",
         "sareaen":"Beitun Dist.",
         "snaen":"Beitun Children's Park",
         "aren":"Sec. 1, Xing’an Rd & Sec. 4, Beiping Rd Intersection",
         "bemp":"16",
         "act":"1"
      },
      "3041":{
         "sno":"3041",
         "sna":"力行國小",
         "tot":"50",
         "sbi":"20",
         "sarea":"東區",
         "mday":"20180828105138",
         "lat":"24.151573",
         "lng":"120.693931",
         "ar":"力行路/進化路口",
         "sareaen":"East Dist.",
         "snaen":"Li Sing Elementary School",
         "aren":"Lixing Rd & Jinhua Rd Intersection",
         "bemp":"30",
         "act":"1"
      },
      "3042":{
         "sno":"3042",
         "sna":"臺中一中",
         "tot":"60",
         "sbi":"24",
         "sarea":"北區",
         "mday":"20180828105137",
         "lat":"24.149175",
         "lng":"120.686487",
         "ar":"育才街/尊賢街口",
         "sareaen":"North Dist.",
         "snaen":"Taichung First Senior High School",
         "aren":"Yucai St & Zunxian St Intersection",
         "bemp":"36",
         "act":"1"
      },
      "3043":{
         "sno":"3043",
         "sna":"忠誠公園",
         "tot":"50",
         "sbi":"27",
         "sarea":"西區",
         "mday":"20180828105133",
         "lat":"24.161092",
         "lng":"120.662753",
         "ar":"忠明路/華美西街一段口",
         "sareaen":"West Dist.",
         "snaen":"Chong Cheng Park",
         "aren":"Zhongming Rd & Sec. 1, Huamei W. St Intersection",
         "bemp":"21",
         "act":"1"
      },
      "3044":{
         "sno":"3044",
         "sna":"賴明公園",
         "tot":"40",
         "sbi":"11",
         "sarea":"北區",
         "mday":"20180828105124",
         "lat":"24.167109",
         "lng":"120.678381",
         "ar":"梅川東路三段/漢口路四段口",
         "sareaen":"North Dist.",
         "snaen":"Lai Ming Park",
         "aren":"Sec. 3, Meichuan E. Rd & Sec. 4, Hankou Rd Intersection",
         "bemp":"29",
         "act":"1"
      },
      "3045":{
         "sno":"3045",
         "sna":"文華高中",
         "tot":"70",
         "sbi":"0",
         "sarea":"西屯區",
         "mday":"20180618134700",
         "lat":"24.171233",
         "lng":"120.660673",
         "ar":"文心路三段/河南路一段口",
         "sareaen":"Xitun Dist.",
         "snaen":"Wen-Hua Senior High School",
         "aren":"Sec. 3, Wenxin Rd & Sec. 1, Henan Rd Intersection",
         "bemp":"0",
         "act":"0"
      },
      "3046":{
         "sno":"3046",
         "sna":"崇倫公園",
         "tot":"44",
         "sbi":"32",
         "sarea":"南區",
         "mday":"20180828105139",
         "lat":"24.132292",
         "lng":"120.661146",
         "ar":"南屯路一段/美村路二段口",
         "sareaen":"South Dist.",
         "snaen":"Chung Luen Park",
         "aren":"Sec. 1, Nantun Rd & Sec. 1, Meicun Rd., West Dist Intersection",
         "bemp":"12",
         "act":"1"
      },
      "3047":{
         "sno":"3047",
         "sna":"臺中火車站(建國路)",
         "tot":"62",
         "sbi":"36",
         "sarea":"中區",
         "mday":"20180828105122",
         "lat":"24.137380",
         "lng":"120.684360 ",
         "ar":"建國路/中山路口",
         "sareaen":"Central Dist.",
         "snaen":"Taichung Railway Station(Jianguo Rd.)",
         "aren":"Jianguo Rd & Zhongshan Rd Intersection",
         "bemp":"26",
         "act":"1"
      },
      "3048":{
         "sno":"3048",
         "sna":"黎明國中",
         "tot":"50",
         "sbi":"31",
         "sarea":"南屯區",
         "mday":"20180828105139",
         "lat":"24.156493",
         "lng":"120.634399",
         "ar":"黎明路二段/市政南二路口",
         "sareaen":"Nantun Dist.",
         "snaen":"Li Ming Junior High School",
         "aren":"Sec. 2, Liming Rd., Nantun Dist & Shizheng S. 2nd Rd Intersection",
         "bemp":"19",
         "act":"1"
      },
      "3049":{
         "sno":"3049",
         "sna":"豐樂雕塑公園",
         "tot":"42",
         "sbi":"24",
         "sarea":"南屯區",
         "mday":"20180828105119",
         "lat":"24.132054",
         "lng":"120.643470",
         "ar":"文心南五路/向心南路口",
         "sareaen":"Nantun Dist.",
         "snaen":"Fromlove Park",
         "aren":"Wenxin S. 5th Rd & Xiangxin S. Rd Intersection",
         "bemp":"18",
         "act":"1"
      },
      "3050":{
         "sno":"3050",
         "sna":"惠文高中",
         "tot":"44",
         "sbi":"16",
         "sarea":"南屯區",
         "mday":"20180828105126",
         "lat":"24.153645",
         "lng":"120.640400",
         "ar":"大業路/惠中路二段口",
         "sareaen":"Nantun Dist.",
         "snaen":"Hui-Wen High School",
         "aren":"Daye Rd & Sec. 2, Huizhong Rd Intersection",
         "bemp":"28",
         "act":"1"
      },
      "3051":{
         "sno":"3051",
         "sna":"上石公園",
         "tot":"36",
         "sbi":"11",
         "sarea":"西屯區",
         "mday":"20180828105125",
         "lat":"24.172842",
         "lng":"120.644939",
         "ar":"西屯路二段/上石北五巷口",
         "sareaen":"Xitun Dist.",
         "snaen":"Shang Shi Park",
         "aren":"Sec. 2, Xitun Rd & Shangshi N. 5th Ln Intersection",
         "bemp":"25",
         "act":"1"
      },
      "3052":{
         "sno":"3052",
         "sna":"英才公園",
         "tot":"48",
         "sbi":"29",
         "sarea":"北區",
         "mday":"20180828105144",
         "lat":"24.155624",
         "lng":"120.670979",
         "ar":"英才路/民權路口",
         "sareaen":"North Dist.",
         "snaen":"Ying Cai Park",
         "aren":"Yingcai Rd & Minquan Rd Intersection",
         "bemp":"19",
         "act":"1"
      },
      "3053":{
         "sno":"3053",
         "sna":"中德公園",
         "tot":"44",
         "sbi":"23",
         "sarea":"北區",
         "mday":"20180828105125",
         "lat":"24.163681",
         "lng":"120.668407",
         "ar":"忠明六街/忠太西路口",
         "sareaen":"North Dist.",
         "snaen":"Zhong De Park",
         "aren":"Zhongming 6th St & Zhongtai W. Rd Intersection",
         "bemp":"21",
         "act":"1"
      },
      "3054":{
         "sno":"3054",
         "sna":"向心兒童公園",
         "tot":"46",
         "sbi":"21",
         "sarea":"南屯區",
         "mday":"20180828105130",
         "lat":"24.13593",
         "lng":"120.644625",
         "ar":"文心南二路/向心南路口",
         "sareaen":"Nantun Dist.",
         "snaen":"Xiang Xin Children’s Park",
         "aren":"Wenxin S. 2nd Rd & Xiangxin S. Rd Intersection",
         "bemp":"25",
         "act":"1"
      },
      "3055":{
         "sno":"3055",
         "sna":"市政公園停車場",
         "tot":"46",
         "sbi":"25",
         "sarea":"西屯區",
         "mday":"20180828105126",
         "lat":"24.160994",
         "lng":"120.644537",
         "ar":"市政北五路/惠中路一段口",
         "sareaen":"Xitun Dist.",
         "snaen":"City Hall Garden Parking",
         "aren":"Shizheng N. 5th Rd. & Sec. 1, Huizhong Rd Intersection",
         "bemp":"21",
         "act":"1"
      },
      "3056":{
         "sno":"3056",
         "sna":"民俗公園",
         "tot":"46",
         "sbi":"22",
         "sarea":"北屯區",
         "mday":"20180828105138",
         "lat":"24.175306",
         "lng":"120.688075",
         "ar":"熱河路二段/大連路二段口",
         "sareaen":"Beitun Dist.",
         "snaen":"Min Su Park",
         "aren":"Sec. 2, Rehe Rd & Sec. 2, Dalian Rd",
         "bemp":"24",
         "act":"1"
      },
      "3057":{
         "sno":"3057",
         "sna":"臺中國小",
         "tot":"50",
         "sbi":"23",
         "sarea":"東區",
         "mday":"20180828105127",
         "lat":"24.13201",
         "lng":"120.68447",
         "ar":"信義街/臺中路口",
         "sareaen":"East Dist.",
         "snaen":"Taichung Elementary School",
         "aren":"Xinyi St & Taizhong Rd Intersection",
         "bemp":"27",
         "act":"1"
      },
      "3058":{
         "sno":"3058",
         "sna":"國立中興大學",
         "tot":"40",
         "sbi":"17",
         "sarea":"南區",
         "mday":"20180828105120",
         "lat":"24.12391",
         "lng":"120.677198",
         "ar":"興大路/仁德街口",
         "sareaen":"South Dist.",
         "snaen":"National Chung Hsing University",
         "aren":"Xingda Rd & Rende St Intersection",
         "bemp":"20",
         "act":"1"
      },
      "3059":{
         "sno":"3059",
         "sna":"大業公園",
         "tot":"36",
         "sbi":"24",
         "sarea":"南屯區",
         "mday":"20180828105124",
         "lat":"24.153686",
         "lng":"120.651108",
         "ar":"大業路/大進街口",
         "sareaen":"Nantun Dist.",
         "snaen":"Da Ye Park",
         "aren":"Daye Rd & Dajin St Intersection",
         "bemp":"12",
         "act":"1"
      },
      "3060":{
         "sno":"3060",
         "sna":"忠孝國光路口",
         "tot":"48",
         "sbi":"16",
         "sarea":"南區",
         "mday":"20180828105140",
         "lat":"24.12811",
         "lng":"120.67816",
         "ar":"忠孝路/國光路口",
         "sareaen":"South Dist.",
         "snaen":"Zhongxiao Guoguang Intersection",
         "aren":"Zhongxiao Rd & Guoguang Rd Intersection",
         "bemp":"32",
         "act":"1"
      },
      "3061":{
         "sno":"3061",
         "sna":"大智國小",
         "tot":"40",
         "sbi":"15",
         "sarea":"東區",
         "mday":"20180828105125",
         "lat":"24.129560 ",
         "lng":"120.690590 ",
         "ar":"建德街/大智路口",
         "sareaen":"East Dist.",
         "snaen":"Dazhi Elementary School",
         "aren":"Jiande St & Dazhi Rd Intersection",
         "bemp":"25",
         "act":"1"
      },
      "3062":{
         "sno":"3062",
         "sna":"健行國小",
         "tot":"40",
         "sbi":"9",
         "sarea":"北區",
         "mday":"20180828105136",
         "lat":"24.159280 ",
         "lng":"120.674100 ",
         "ar":"健行路/健行路664巷口",
         "sareaen":"North Dist.",
         "snaen":"Jian Xing Elementary School",
         "aren":"Jianxing Rd & Ln. 664, Jianxing Rd Intersection",
         "bemp":"31",
         "act":"1"
      },
      "3063":{
         "sno":"3063",
         "sna":"東峰公園",
         "tot":"44",
         "sbi":"21",
         "sarea":"東區",
         "mday":"20180828105132",
         "lat":"24.126270 ",
         "lng":"120.688270 ",
         "ar":"仁和路/立德東街口",
         "sareaen":"East Dist.",
         "snaen":"Dongfeng Park",
         "aren":"Renhe Rd & Lide E. St Intersection",
         "bemp":"23",
         "act":"1"
      },
      "3064":{
         "sno":"3064",
         "sna":"太原華美街口",
         "tot":"42",
         "sbi":"24",
         "sarea":"北區",
         "mday":"20180828105130",
         "lat":"24.16482",
         "lng":"120.66496",
         "ar":"太原路一段/華美街二段口",
         "sareaen":"North Dist.",
         "snaen":"Taiyuan Rd./ Huamei St.",
         "aren":"Sec. 1, Taiyuan Rd & Sec. 2, Huamei St Intersection",
         "bemp":"18",
         "act":"1"
      },
      "3065":{
         "sno":"3065",
         "sna":"柳川東中華路口",
         "tot":"40",
         "sbi":"19",
         "sarea":"中區",
         "mday":"20180828105135",
         "lat":"24.146920 ",
         "lng":"120.678300 ",
         "ar":"柳川東路四段/中華路二段口",
         "sareaen":"Central Dist.",
         "snaen":"Liuchuan E. Rd. / Zhonghua Rd.",
         "aren":"Sec. 4, Liuchuan E. Rd & Sec. 2, Zhonghua Rd Intersection",
         "bemp":"21",
         "act":"1"
      },
      "3066":{
         "sno":"3066",
         "sna":"忠明南美村南路口",
         "tot":"44",
         "sbi":"15",
         "sarea":"南區",
         "mday":"20180828105125",
         "lat":"24.118980",
         "lng":"120.667140",
         "ar":"忠明南路/美村南路口",
         "sareaen":"South Dist.",
         "snaen":"Zhongming S. Rd. / Meicun S. Rd.",
         "aren":"Zhongming S. Rd & Meicun S. Rd Intersection",
         "bemp":"28",
         "act":"1"
      },
      "3067":{
         "sno":"3067",
         "sna":"忠明南復興路口",
         "tot":"36",
         "sbi":"25",
         "sarea":"南區",
         "mday":"20180828105130",
         "lat":"24.121750 ",
         "lng":"120.661330 ",
         "ar":"忠明南路/復興路二段口",
         "sareaen":"South Dist.",
         "snaen":"Zhongming S. Rd. / Fuxing Rd.",
         "aren":"Zhongming S & Sec. 2, Fuxing Rd Intersection",
         "bemp":"11",
         "act":"1"
      },
      "3068":{
         "sno":"3068",
         "sna":"新福公園",
         "tot":"30",
         "sbi":"16",
         "sarea":"太平區",
         "mday":"20180828105121",
         "lat":"24.150890",
         "lng":"120.701390",
         "ar":"旱溪東路二段/中山路四段口",
         "sareaen":"Taiping Dist.",
         "snaen":"Xinfu Park",
         "aren":"Sec. 2, Hanxi E. Rd & Sec. 4, Zhongshan Rd Intersection",
         "bemp":"14",
         "act":"1"
      },
      "3069":{
         "sno":"3069",
         "sna":"積善公園",
         "tot":"38",
         "sbi":"14",
         "sarea":"南區",
         "mday":"20180828105133",
         "lat":"24.114900 ",
         "lng":"120.671370 ",
         "ar":"大明路/興大路口",
         "sareaen":"South Dist.",
         "snaen":"Jishan Park",
         "aren":"Daming Rd & Xingda Rd Intersection",
         "bemp":"24",
         "act":"1"
      },
      "3070":{
         "sno":"3070",
         "sna":"山西公園",
         "tot":"38",
         "sbi":"11",
         "sarea":"北區",
         "mday":"20180828105127",
         "lat":"24.171060 ",
         "lng":"120.675900 ",
         "ar":"山西路二段/北平路二段口",
         "sareaen":"North Dist.",
         "snaen":"Shanxi Park",
         "aren":"Sec. 2, Shanxi Rd & Sec. 2, Beiping Rd Intersection",
         "bemp":"27",
         "act":"1"
      },
      "3071":{
         "sno":"3071",
         "sna":"北屯區文昌國小",
         "tot":"42",
         "sbi":"17",
         "sarea":"北屯區",
         "mday":"20180828105135",
         "lat":"24.167120 ",
         "lng":"120.691520 ",
         "ar":"興安路一段/青島路四段口",
         "sareaen":"Beitun Dist.",
         "snaen":"Beitun Dist. Wun Chang Elementary School",
         "aren":"Sec. 1, Xing’an Rd & Sec. 4, Qingdao Rd Intersection",
         "bemp":"24",
         "act":"1"
      },
      "3072":{
         "sno":"3072",
         "sna":"祥順運動公園",
         "tot":"30",
         "sbi":"19",
         "sarea":"太平區",
         "mday":"20180828105146",
         "lat":"24.137470 ",
         "lng":"120.712510 ",
         "ar":"宜昌路87巷/宜昌路口",
         "sareaen":"Taiping Dist.",
         "snaen":"Xiangshun Sports Park",
         "aren":"Ln. 87, Yichang Rd & Yichang Rd Intersection",
         "bemp":"10",
         "act":"1"
      },
      "3073":{
         "sno":"3073",
         "sna":"永興公園",
         "tot":"46",
         "sbi":"11",
         "sarea":"南區",
         "mday":"20180828105135",
         "lat":"24.116740 ",
         "lng":"120.664880 ",
         "ar":"工學路/工學一街口",
         "sareaen":"South Dist.",
         "snaen":"Yongxing Park",
         "aren":"Gongxue Rd & Gongxue 1st St Intersection",
         "bemp":"35",
         "act":"1"
      },
      "3074":{
         "sno":"3074",
         "sna":"臺中高工",
         "tot":"60",
         "sbi":"24",
         "sarea":"南區",
         "mday":"20180828105125",
         "lat":"24.113280 ",
         "lng":"120.662010 ",
         "ar":"高工路/工學二街口",
         "sareaen":"South Dist.",
         "snaen":"National Taichung Industrial High School",
         "aren":"Gaogong Rd & Gongxue 2nd St Intersection",
         "bemp":"36",
         "act":"1"
      },
      "3075":{
         "sno":"3075",
         "sna":"豐原高商",
         "tot":"46",
         "sbi":"20",
         "sarea":"豐原區",
         "mday":"20180828105143",
         "lat":"24.245290",
         "lng":"120.713820",
         "ar":"圓環南路/中山路口",
         "sareaen":"Fengyuan Dist.",
         "snaen":"National Fengyuan Commercial High School",
         "aren":"Yuanhuan S. Rd & Zhongshan Rd Intersection",
         "bemp":"26",
         "act":"1"
      },
      "3076":{
         "sno":"3076",
         "sna":"興進園道",
         "tot":"38",
         "sbi":"13",
         "sarea":"北區",
         "mday":"20180828105131",
         "lat":"24.155540 ",
         "lng":"120.696730 ",
         "ar":"興進路/興進路76巷口",
         "sareaen":"North Dist.",
         "snaen":"Xingjin Greenway ",
         "aren":"Xingjin Rd & Ln. 76, Xingjin Rd Intersection",
         "bemp":"25",
         "act":"1"
      },
      "3077":{
         "sno":"3077",
         "sna":"新平國小",
         "tot":"34",
         "sbi":"15",
         "sarea":"太平區",
         "mday":"20180828105134",
         "lat":"24.154360 ",
         "lng":"120.719750 ",
         "ar":"育德路162巷/樹孝路274巷9弄口",
         "sareaen":"Taiping Dist.",
         "snaen":"Sinping Elementary School",
         "aren":"Ln. 162, Yude Rd & Aly. 9, Ln. 274, Shuxiao Rd Intersection",
         "bemp":"19",
         "act":"1"
      },
      "3078":{
         "sno":"3078",
         "sna":"大甲鎮瀾宮",
         "tot":"46",
         "sbi":"21",
         "sarea":"大甲區",
         "mday":"20180828105137",
         "lat":"24.344500 ",
         "lng":"120.623670 ",
         "ar":"鎮瀾街/中華街口",
         "sareaen":"Dajia Dist.",
         "snaen":"Dajia Jenn Lann Temple",
         "aren":"Zhenlan St & Zhonghua St Intersection",
         "bemp":"25",
         "act":"1"
      },
      "3079":{
         "sno":"3079",
         "sna":"國立公共資訊圖書館",
         "tot":"42",
         "sbi":"24",
         "sarea":"南區",
         "mday":"20180828105125",
         "lat":"24.127450",
         "lng":"120.669690",
         "ar":"五權南路100號前",
         "sareaen":"South Dist.",
         "snaen":"National Library of Public Information",
         "aren":"No.100, Wuquan S",
         "bemp":"18",
         "act":"1"
      },
      "3080":{
         "sno":"3080",
         "sna":"臺中國家歌劇院",
         "tot":"50",
         "sbi":"33",
         "sarea":"西屯區",
         "mday":"20180828105143",
         "lat":"24.164070",
         "lng":"120.640120",
         "ar":"惠民路/市政北六路口",
         "sareaen":"Xitun Dist.",
         "snaen":"National Taichung Theater",
         "aren":"Huimin Rd & Shizheng N. 6th Rd Intersection",
         "bemp":"17",
         "act":"1"
      },
      "3081":{
         "sno":"3081",
         "sna":"豐原廟東夜市",
         "tot":"36",
         "sbi":"20",
         "sarea":"豐原區",
         "mday":"20180828105134",
         "lat":"24.252590",
         "lng":"120.718640",
         "ar":"中正路212巷/信義街口",
         "sareaen":"Fengyuan Dist.",
         "snaen":"Fengyuan Miao Dong Night Market",
         "aren":"Ln. 212, Zhongzheng Rd & Xinyi St Intersection",
         "bemp":"16",
         "act":"1"
      },
      "3082":{
         "sno":"3082",
         "sna":"建成樂業路口",
         "tot":"42",
         "sbi":"13",
         "sarea":"東區",
         "mday":"20180828105130",
         "lat":"24.138580 ",
         "lng":"120.696690 ",
         "ar":"建成路/樂業路口",
         "sareaen":"East Dist.",
         "snaen":"Jiancheng Rd./Leye Rd.",
         "aren":"Jiancheng Rd & Leye Rd Intersection",
         "bemp":"29",
         "act":"1"
      },
      "3083":{
         "sno":"3083",
         "sna":"豐原火車站",
         "tot":"68",
         "sbi":"33",
         "sarea":"豐原區",
         "mday":"20180828105135",
         "lat":"24.254520",
         "lng":"120.722650",
         "ar":"中正路/東北街口",
         "sareaen":"Fengyuan Dist.",
         "snaen":"Fengyuan Station",
         "aren":"Zhongzheng Rd & Dongbei St Intersection",
         "bemp":"35",
         "act":"1"
      },
      "3084":{
         "sno":"3084",
         "sna":"三甲公園",
         "tot":"30",
         "sbi":"17",
         "sarea":"北屯區",
         "mday":"20180828105116",
         "lat":"24.166210",
         "lng":"120.706530",
         "ar":"旱溪東路三段/景賢南一路口",
         "sareaen":"Beitun Dist.",
         "snaen":"Sanjia Park",
         "aren":"Sec. 3, Hanxi E. Rd & Jingxian S. 1st Rd Intersection",
         "bemp":"13",
         "act":"1"
      },
      "3085":{
         "sno":"3085",
         "sna":"北區太平國小",
         "tot":"50",
         "sbi":"31",
         "sarea":"北區",
         "mday":"20180828105145",
         "lat":"24.148590 ",
         "lng":"120.681610 ",
         "ar":"太平路/大誠街口",
         "sareaen":"North Dist.",
         "snaen":"North Tai-Ping Elementary School",
         "aren":"Taiping Rd & Dacheng St Intersection",
         "bemp":"19",
         "act":"1"
      },
      "3086":{
         "sno":"3086",
         "sna":"敦化公園",
         "tot":"40",
         "sbi":"11",
         "sarea":"北屯區",
         "mday":"20180828105128",
         "lat":"24.187820",
         "lng":"120.667520",
         "ar":"后庄七街/敦化路一段口",
         "sareaen":"Beitun Dist.",
         "snaen":"Dunhua Park",
         "aren":"Houzhuang 7th St & Sec. 1, Dunhua Rd Intersection",
         "bemp":"29",
         "act":"1"
      },
      "3087":{
         "sno":"3087",
         "sna":"豐原地政事務所",
         "tot":"36",
         "sbi":"26",
         "sarea":"豐原區",
         "mday":"20180828105116",
         "lat":"24.249030",
         "lng":"120.714410",
         "ar":"西安街/興安街口",
         "sareaen":"Fengyuan Dist.",
         "snaen":"Fengyuan Land Office",
         "aren":"Xi’an St & Xing’an St Intersection",
         "bemp":"9",
         "act":"1"
      },
      "3088":{
         "sno":"3088",
         "sna":"內新市場",
         "tot":"32",
         "sbi":"18",
         "sarea":"大里區",
         "mday":"20180828105146",
         "lat":"24.110290",
         "lng":"120.69004",
         "ar":"中興路二段/東榮路一段口",
         "sareaen":"Dali Dist.",
         "snaen":"Neixin Market",
         "aren":"Sec. 2, Zhongxing Rd & Sec. 1, Dongrong Rd Intersection",
         "bemp":"14",
         "act":"1"
      },
      "3089":{
         "sno":"3089",
         "sna":"大甲區壘球場",
         "tot":"30",
         "sbi":"14",
         "sarea":"大甲區",
         "mday":"20180828105134",
         "lat":"24.354310",
         "lng":"120.626030",
         "ar":"錦上街/雁門路口",
         "sareaen":"Dajia Dist.",
         "snaen":"Dajia District Softball Field",
         "aren":"Jinshang St & Yanmen Rd Intersection",
         "bemp":"16",
         "act":"1"
      },
      "3090":{
         "sno":"3090",
         "sna":"大甲區公所",
         "tot":"32",
         "sbi":"15",
         "sarea":"大甲區",
         "mday":"20180828105127",
         "lat":"24.349810",
         "lng":"120.622640",
         "ar":"新政路/三民路口",
         "sareaen":"Dajia Dist.",
         "snaen":"Dajia District Office",
         "aren":"Xinzheng Rd & Sanmin Rd Intersection",
         "bemp":"17",
         "act":"1"
      },
      "3091":{
         "sno":"3091",
         "sna":"大甲火車站",
         "tot":"44",
         "sbi":"25",
         "sarea":"大甲區",
         "mday":"20180828105121",
         "lat":"24.344180",
         "lng":"120.626880",
         "ar":"中山路一段/蔣公路口",
         "sareaen":"Dajia Dist.",
         "snaen":"Dajia Station",
         "aren":"Sec. 1, Zhongshan Rd & Jianggong Rd Intersection ",
         "bemp":"19",
         "act":"1"
      },
      "3092":{
         "sno":"3092",
         "sna":"大甲體育場",
         "tot":"34",
         "sbi":"21",
         "sarea":"大甲區",
         "mday":"20180828105137",
         "lat":"24.350388",
         "lng":"120.615759",
         "ar":"大安港路/大安港路53巷口",
         "sareaen":"Dajia Dist.",
         "snaen":"Dajia Stadium",
         "aren":"Da’angang Rd & Ln. 53, Da’angang Rd Intersection",
         "bemp":"12",
         "act":"1"
      },
      "3093":{
         "sno":"3093",
         "sna":"豐原高中",
         "tot":"42",
         "sbi":"14",
         "sarea":"豐原區",
         "mday":"20180828105142",
         "lat":"24.255730",
         "lng":"120.74168",
         "ar":"水源路/水源路129巷口",
         "sareaen":"Fengyuan Dist.",
         "snaen":"National Fengyuan Senior High School",
         "aren":"Shuiyuan Rd & Ln. 129, Shuiyuan Rd Intersection",
         "bemp":"26",
         "act":"1"
      },
      "3094":{
         "sno":"3094",
         "sna":"一江橋",
         "tot":"30",
         "sbi":"12",
         "sarea":"太平區",
         "mday":"20180828105132",
         "lat":"24.131210",
         "lng":"120.737260",
         "ar":"光興路/長龍路一段口",
         "sareaen":"Taiping Dist.",
         "snaen":"Yi Jiang Bridge",
         "aren":"Guangxing Rd & Sec. 1, Changlong Rd Intersection",
         "bemp":"17",
         "act":"1"
      },
      "3095":{
         "sno":"3095",
         "sna":"新平立體停車場",
         "tot":"40",
         "sbi":"28",
         "sarea":"太平區",
         "mday":"20180828105126",
         "lat":"24.149030",
         "lng":"120.715410",
         "ar":"中山路三段/樹孝路口",
         "sareaen":"Taiping Dist.",
         "snaen":"Xinping Parking Garage",
         "aren":"Sec. 3, Zhongshan Rd & Shuxiao Rd Intersection ",
         "bemp":"12",
         "act":"1"
      },
      "3096":{
         "sno":"3096",
         "sna":"樹德停車場",
         "tot":"44",
         "sbi":"26",
         "sarea":"南區",
         "mday":"20180828105141",
         "lat":"24.118510",
         "lng":"120.654350",
         "ar":"德富路146巷/德吉街口",
         "sareaen":"South Dist.",
         "snaen":"Shude Parking Lot ",
         "aren":"Ln. 146, Defu Rd & Deji St Intersection",
         "bemp":"18",
         "act":"1"
      },
      "3097":{
         "sno":"3097",
         "sna":"長億公園",
         "tot":"36",
         "sbi":"20",
         "sarea":"太平區",
         "mday":"20180828105132",
         "lat":"24.117760",
         "lng":"120.714780",
         "ar":"永成北路/永成北路151巷口",
         "sareaen":"Taiping Dist.",
         "snaen":"Changyi Park",
         "aren":"Yongcheng N. Rd & Ln. 151, Yongcheng N. Rd Intersection ",
         "bemp":"16",
         "act":"1"
      },
      "3098":{
         "sno":"3098",
         "sna":"宜昌兒童公園",
         "tot":"30",
         "sbi":"12",
         "sarea":"太平區",
         "mday":"20180828105118",
         "lat":"24.144420",
         "lng":"120.713220",
         "ar":"十甲路615號對面",
         "sareaen":"Taiping Dist.",
         "snaen":"Yichang Children's Park",
         "aren":"No.615, Shijia Rd",
         "bemp":"18",
         "act":"1"
      },
      "3099":{
         "sno":"3099",
         "sna":"中山醫學大學",
         "tot":"46",
         "sbi":"24",
         "sarea":"南區",
         "mday":"20180828105140",
         "lat":"24.122120",
         "lng":"120.652710",
         "ar":"建國北路一段/文心南路口",
         "sareaen":"South Dist.",
         "snaen":"Chung Shan Medical University",
         "aren":"Sec. 1, Jianguo N. Rd & Wenxin S. Rd Intersection ",
         "bemp":"22",
         "act":"1"
      },
      "3100":{
         "sno":"3100",
         "sna":"太平區運動場",
         "tot":"36",
         "sbi":"18",
         "sarea":"太平區",
         "mday":"20180828105117",
         "lat":"24.130940",
         "lng":"120.720470",
         "ar":"永平路一段/中興東路口",
         "sareaen":"Taiping Dist.",
         "snaen":"Taiping Sadium",
         "aren":"Sec. 1, Yongping Rd & Zhongxing E. Rd Intersection ",
         "bemp":"18",
         "act":"1"
      },
      "3101":{
         "sno":"3101",
         "sna":"環河公園",
         "tot":"30",
         "sbi":"12",
         "sarea":"大里區",
         "mday":"20180828105127",
         "lat":"24.11269",
         "lng":"120.67397",
         "ar":"永隆六街/爽文路口",
         "sareaen":"Dali Dist.",
         "snaen":"Huan He Park",
         "aren":"Yonglong 6th St & Shuangwun Rd Intersection",
         "bemp":"16",
         "act":"1"
      },
      "3102":{
         "sno":"3102",
         "sna":"中興大學附屬高中",
         "tot":"40",
         "sbi":"15",
         "sarea":"大里區",
         "mday":"20180828105132",
         "lat":"24.10991",
         "lng":"120.68375",
         "ar":"益民路二段/益民路二段230巷口",
         "sareaen":"Dali Dist.",
         "snaen":"The Affiliated High School of NCHU",
         "aren":"Sec. 2, Yimin Rd & Ln. 230, Sec. 2, Yimin Rd Intersection",
         "bemp":"25",
         "act":"1"
      },
      "3103":{
         "sno":"3103",
         "sna":"臺中市籃球運動中心",
         "tot":"34",
         "sbi":"19",
         "sarea":"北屯區",
         "mday":"20180828105127",
         "lat":"24.166380 ",
         "lng":"120.711840 ",
         "ar":"景賢六路/景賢南一路口",
         "sareaen":"Beitun Dist.",
         "snaen":"Taichung Basketball Sports Center",
         "aren":" Jingxian 6th Rd & Jingxian S. 1st Rd Intersection",
         "bemp":"15",
         "act":"1"
      },
      "3104":{
         "sno":"3104",
         "sna":"東光國小",
         "tot":"32",
         "sbi":"10",
         "sarea":"北屯區",
         "mday":"20180828105119",
         "lat":"24.17178",
         "lng":"120.70236",
         "ar":"東山路一段91巷/東山路一段123巷31弄口",
         "sareaen":"Beitun Dist.",
         "snaen":"Dung-Guang Elementary School",
         "aren":"Ln. 91, Sec. 1, Dongshan Rd & ly. 31, Ln. 123, Sec. 1, Dongshan Rd Intersection",
         "bemp":"22",
         "act":"1"
      },
      "3105":{
         "sno":"3105",
         "sna":"北屯區公所",
         "tot":"30",
         "sbi":"18",
         "sarea":"北屯區",
         "mday":"20180828105144",
         "lat":"24.18299",
         "lng":"120.68631",
         "ar":"崇德路三段/崇德八路一段口",
         "sareaen":"Beitun Dist.",
         "snaen":"Beitun District Office",
         "aren":" Sec. 3, Chongde Rd & Sec. 1, Chongde 8th Rd Intersection",
         "bemp":"12",
         "act":"1"
      },
      "3106":{
         "sno":"3106",
         "sna":"大德公園",
         "tot":"30",
         "sbi":"17",
         "sarea":"北屯區",
         "mday":"20180828105141",
         "lat":"24.18161",
         "lng":"120.67207",
         "ar":"平德路/平德路1巷口",
         "sareaen":"Beitun Dist.",
         "snaen":"Da De Park",
         "aren":" Pingde Rd & Ln. 1, Pingde Rd Intersection",
         "bemp":"13",
         "act":"1"
      },
      "3107":{
         "sno":"3107",
         "sna":"新都生態公園",
         "tot":"36",
         "sbi":"18",
         "sarea":"北屯區",
         "mday":"20180828105137",
         "lat":"24.173800 ",
         "lng":"120.730080 ",
         "ar":"軍福十五路/祥順路二段口",
         "sareaen":"Beitun Dist.",
         "snaen":"Sin Dou Ecology Park",
         "aren":" Junfu 15th Rd & Sec. 2, Xiangshun Rd Intersection",
         "bemp":"18",
         "act":"1"
      },
      "3108":{
         "sno":"3108",
         "sna":"楓香公園",
         "tot":"34",
         "sbi":"18",
         "sarea":"南屯區",
         "mday":"20180828105121",
         "lat":"24.11578",
         "lng":"120.62871",
         "ar":"楓樹西街/楓樹南街口",
         "sareaen":"Nantun Dist.",
         "snaen":"Fong Siang Park",
         "aren":" Fengshu W. St & Fengshu S. St Intersection",
         "bemp":"16",
         "act":"1"
      },
      "3109":{
         "sno":"3109",
         "sna":"鎮平公園",
         "tot":"30",
         "sbi":"13",
         "sarea":"南屯區",
         "mday":"20180828105116",
         "lat":"24.12057",
         "lng":"120.62915",
         "ar":"楓樹西街366巷/黎明路一段口",
         "sareaen":"Nantun Dist.",
         "snaen":"Zhen Ping Park",
         "aren":" Ln. 366, Fengshu W. St & Sec. 1, Liming Rd Intersection",
         "bemp":"17",
         "act":"1"
      },
      "3110":{
         "sno":"3110",
         "sna":"豐富公園",
         "tot":"30",
         "sbi":"15",
         "sarea":"南屯區",
         "mday":"20180828105124",
         "lat":"24.131700 ",
         "lng":"120.653260 ",
         "ar":"東興路一段/文心南五路一段口",
         "sareaen":"Nantun Dist.",
         "snaen":"Feng Fu Park",
         "aren":" Sec. 1, Dongxing Rd & Sec. 1, Wenxin S. 5th Rd Intersection",
         "bemp":"15",
         "act":"1"
      },
      "3111":{
         "sno":"3111",
         "sna":"五權火車站",
         "tot":"36",
         "sbi":"9",
         "sarea":"南區",
         "mday":"20180828105121",
         "lat":"24.128620 ",
         "lng":"120.664560 ",
         "ar":"建國北路二段100巷/建國北路二段口",
         "sareaen":"South Dist.",
         "snaen":"Wuquan Railway Station",
         "aren":" Ln. 100, Sec. 2, Jianguo N. Rd & Sec. 2, Jianguo N. Rd Intersection",
         "bemp":"27",
         "act":"1"
      },
      "3112":{
         "sno":"3112",
         "sna":"江川公園",
         "tot":"36",
         "sbi":"10",
         "sarea":"南區",
         "mday":"20180828105128",
         "lat":"24.124400 ",
         "lng":"120.671590 ",
         "ar":"復興園路/永東街口",
         "sareaen":"South Dist.",
         "snaen":"Jiang Chuan Park",
         "aren":" Fuxingyuan Rd & Yongdong St Intersection",
         "bemp":"26",
         "act":"1"
      },
      "3113":{
         "sno":"3113",
         "sna":"樹義公園",
         "tot":"32",
         "sbi":"15",
         "sarea":"南區",
         "mday":"20180828105128",
         "lat":"24.11114",
         "lng":"120.65512",
         "ar":"大慶街一段257-3巷/福田三街口",
         "sareaen":"South Dist.",
         "snaen":"Shu Yi Park",
         "aren":" Yonglong 6th St & Shuangwun Rd Intersection",
         "bemp":"17",
         "act":"1"
      },
      "3114":{
         "sno":"3114",
         "sna":"長青公園",
         "tot":"40",
         "sbi":"15",
         "sarea":"北區",
         "mday":"20180828105141",
         "lat":"24.17187",
         "lng":"120.6695",
         "ar":"北平二街/北平路一段口",
         "sareaen":"North Dist.",
         "snaen":"Chang Cing Park",
         "aren":" Beiping 2nd St & Sec. 1, Beiping Rd Intersection",
         "bemp":"24",
         "act":"1"
      },
      "3115":{
         "sno":"3115",
         "sna":"大忠公園",
         "tot":"30",
         "sbi":"15",
         "sarea":"西區",
         "mday":"20180828105137",
         "lat":"24.143380 ",
         "lng":"120.656200 ",
         "ar":"精誠三十街/大忠街口",
         "sareaen":"West Dist.",
         "snaen":"Da Zhong Park",
         "aren":"Jingcheng 30th St  & Dazhong St Intersection",
         "bemp":"14",
         "act":"1"
      },
      "3116":{
         "sno":"3116",
         "sna":"永隆七街永隆路口",
         "tot":"30",
         "sbi":"20",
         "sarea":"大里區",
         "mday":"20180828105132",
         "lat":"24.1136",
         "lng":"120.67607",
         "ar":"永隆七街/永隆路口",
         "sareaen":"Dali Dist.",
         "snaen":"Yonglong 7th St./ Yonglong Rd.",
         "aren":" Yonglong 7th St & Yonglong Rd Intersection",
         "bemp":"10",
         "act":"1"
      },
      "3117":{
         "sno":"3117",
         "sna":"大里運動公園",
         "tot":"30",
         "sbi":"20",
         "sarea":"大里區",
         "mday":"20180828105133",
         "lat":"24.10028",
         "lng":"120.68267",
         "ar":"國光路一段/大里路口",
         "sareaen":"Dali Dist.",
         "snaen":"Dali Sports Park",
         "aren":" Sec. 1, Guoguang Rd & Dali Rd Intersection",
         "bemp":"10",
         "act":"1"
      },
      "3118":{
         "sno":"3118",
         "sna":"國光花市停車場",
         "tot":"38",
         "sbi":"25",
         "sarea":"大里區",
         "mday":"20180828105116",
         "lat":"24.103850 ",
         "lng":"120.683660 ",
         "ar":"德芳南路/德芳南三街口",
         "sareaen":"Dali Dist.",
         "snaen":"Guo Guang Flower Market Parking Lot",
         "aren":" Defang S. Rd & Defang S. 3rd St Intersection",
         "bemp":"13",
         "act":"1"
      },
      "3119":{
         "sno":"3119",
         "sna":"德芳南路德芳南一街口",
         "tot":"36",
         "sbi":"20",
         "sarea":"大里區",
         "mday":"20180828105122",
         "lat":"24.10251",
         "lng":"120.68731",
         "ar":"德芳南路/德芳南一街口",
         "sareaen":"Dali Dist.",
         "snaen":"Defang S.Rd./Defang S.1st St.",
         "aren":" Defang S. Rd & Defang S. 1st St Intersection",
         "bemp":"15",
         "act":"1"
      },
      "3120":{
         "sno":"3120",
         "sna":"大甲高中",
         "tot":"44",
         "sbi":"25",
         "sarea":"大甲區",
         "mday":"20180828105121",
         "lat":"24.34222",
         "lng":"120.62265",
         "ar":"水源路/中山路一段口",
         "sareaen":"Dajia Dist.",
         "snaen":"National Dajia Senior High School",
         "aren":" Shuiyuan Rd & Sec. 1, Zhongshan Rd Intersection",
         "bemp":"19",
         "act":"1"
      },
      "3121":{
         "sno":"3121",
         "sna":"樹仁公園",
         "tot":"38",
         "sbi":"11",
         "sarea":"南區",
         "mday":"20180828105119",
         "lat":"24.10885",
         "lng":"120.65258",
         "ar":"福田二街/樹義路口",
         "sareaen":"South Dist.",
         "snaen":"Shu Ren Park",
         "aren":" Futian 2nd St & Shuyi Rd Intersection",
         "bemp":"26",
         "act":"1"
      },
      "3122":{
         "sno":"3122",
         "sna":"樹義園道",
         "tot":"36",
         "sbi":"11",
         "sarea":"南區",
         "mday":"20180828105135",
         "lat":"24.115330 ",
         "lng":"120.656520 ",
         "ar":"工學北路/樹義二街口",
         "sareaen":"South Dist.",
         "snaen":"Shu Yi Parkway",
         "aren":" Gongxue N. Rd & Shuyi 2nd St Intersection",
         "bemp":"25",
         "act":"1"
      },
      "3123":{
         "sno":"3123",
         "sna":"中興大學附屬高農",
         "tot":"46",
         "sbi":"23",
         "sarea":"東區",
         "mday":"20180828105126",
         "lat":"24.12861",
         "lng":"120.68491",
         "ar":"台中路/建中街口",
         "sareaen":"East Dist.",
         "snaen":"The Affiliated Taichung Senior Agricultural Vocational High School of NCHU",
         "aren":" Taizhong Rd & Jianzhong St Intersection",
         "bemp":"23",
         "act":"1"
      },
      "3124":{
         "sno":"3124",
         "sna":"四張犁農村公園",
         "tot":"34",
         "sbi":"9",
         "sarea":"北屯區",
         "mday":"20180828105133",
         "lat":"24.194460 ",
         "lng":"120.682160 ",
         "ar":"四平路/豐樂路二段口",
         "sareaen":"Beitun Dist.",
         "snaen":"Sizhangli Rural Park",
         "aren":" Siping Rd & Sec. 2, Fengle Rd Intersection",
         "bemp":"25",
         "act":"1"
      },
      "3125":{
         "sno":"3125",
         "sna":"四張犁圖書館",
         "tot":"30",
         "sbi":"20",
         "sarea":"北屯區",
         "mday":"20180828105137",
         "lat":"24.194700 ",
         "lng":"120.680490 ",
         "ar":"豐樂路二段/豐樂一街口",
         "sareaen":"Beitun Dist.",
         "snaen":"Sizhengli Library",
         "aren":" Sec. 2, Fengle Rd & Fengle 1st St Intersection",
         "bemp":"10",
         "act":"1"
      },
      "3126":{
         "sno":"3126",
         "sna":"大鵬國小",
         "tot":"38",
         "sbi":"14",
         "sarea":"西屯區",
         "mday":"20180828105134",
         "lat":"24.17811",
         "lng":"120.66567",
         "ar":"大鵬路/大鵬路59巷口",
         "sareaen":"Xitun Dist.",
         "snaen":"Da Peng Elementary School",
         "aren":" Dapeng Rd & Ln. 59, Dapeng Rd Intersection",
         "bemp":"24",
         "act":"1"
      },
      "3127":{
         "sno":"3127",
         "sna":"協和停車場",
         "tot":"30",
         "sbi":"14",
         "sarea":"西屯區",
         "mday":"20180828105135",
         "lat":"24.17754",
         "lng":"120.62188",
         "ar":"安和西路/福玄路口",
         "sareaen":"Xitun Dist.",
         "snaen":"Sie He Parking Lot",
         "aren":" Anhe W. Rd & Fuxuan Rd Intersection",
         "bemp":"16",
         "act":"1"
      },
      "3128":{
         "sno":"3128",
         "sna":"環保公園",
         "tot":"34",
         "sbi":"25",
         "sarea":"大里區",
         "mday":"20180828105117",
         "lat":"24.10456",
         "lng":"120.67967",
         "ar":"德芳路二段/永大街口",
         "sareaen":"Dali Dist.",
         "snaen":"Enviornment Park",
         "aren":" Sec. 2, Defang Rd & Yongda St Intersection",
         "bemp":"9",
         "act":"1"
      },
      "3129":{
         "sno":"3129",
         "sna":"大里圖書館",
         "tot":"38",
         "sbi":"32",
         "sarea":"大里區",
         "mday":"20180828105118",
         "lat":"24.08778",
         "lng":"120.69557",
         "ar":"中興路一段/中湖路口",
         "sareaen":"Dali Dist.",
         "snaen":"Dali Library",
         "aren":"Sec. 1, Zhongxing Rd & Zhonghu Rd Intersection ",
         "bemp":"6",
         "act":"1"
      },
      "3130":{
         "sno":"3130",
         "sna":"坪林森林公園",
         "tot":"30",
         "sbi":"13",
         "sarea":"太平區",
         "mday":"20180828105142",
         "lat":"24.15006",
         "lng":"120.72839",
         "ar":"中山路二段/中山路二段477巷口",
         "sareaen":"Taiping Dist.",
         "snaen":"Pinglin Forest Park",
         "aren":" Sec. 2, Zhongshan Rd & Ln. 477, Sec. 2, Zhongshan Rd Intersection",
         "bemp":"17",
         "act":"1"
      },
      "3131":{
         "sno":"3131",
         "sna":"臺中女中",
         "tot":"40",
         "sbi":"26",
         "sarea":"西區",
         "mday":"20180828105117",
         "lat":"24.13557",
         "lng":"120.67733",
         "ar":"自由路一段/康樂街口",
         "sareaen":"West Dist.",
         "snaen":"National Taichung Girls' Senior High  School",
         "aren":" Sec. 1, Ziyou Rd & Kangle St Intersection",
         "bemp":"14",
         "act":"1"
      },
      "3132":{
         "sno":"3132",
         "sna":"臺中市纖維工藝博物館",
         "tot":"36",
         "sbi":"0",
         "sarea":"大里區",
         "mday":"20180712142736",
         "lat":"24.10036",
         "lng":"120.68707",
         "ar":"勝利二路口/德芳南一街",
         "sareaen":"Dali Dist.",
         "snaen":"Museum of Fiber Art, Taichung",
         "aren":"Shengli 2nd Rd & Defang S. 1nd St  Intersection",
         "bemp":"0",
         "act":"0"
      },
      "3133":{
         "sno":"3133",
         "sna":"南平公園",
         "tot":"38",
         "sbi":"17",
         "sarea":"南區",
         "mday":"20180828105124",
         "lat":"24.124690 ",
         "lng":"120.668510 ",
         "ar":"和昌街/福新街口",
         "sareaen":"South Dist.",
         "snaen":"Nan Ping Park",
         "aren":" Hechang St & Fuxin St Intersection",
         "bemp":"21",
         "act":"1"
      },
      "3134":{
         "sno":"3134",
         "sna":"西大墩公園",
         "tot":"36",
         "sbi":"19",
         "sarea":"西屯區",
         "mday":"20180828105117",
         "lat":"24.176920 ",
         "lng":"120.635770 ",
         "ar":"福科一街/福科二路口(西北側)",
         "sareaen":"Xitun Dist.",
         "snaen":"West Da Dun Park",
         "aren":" Fuke 1st St & Fuke 2nd Rd Intersection(NorthWest)",
         "bemp":"17",
         "act":"1"
      },
      "3135":{
         "sno":"3135",
         "sna":"福科國民中學",
         "tot":"40",
         "sbi":"21",
         "sarea":"西屯區",
         "mday":"20180828105143",
         "lat":"24.18972",
         "lng":"120.61381",
         "ar":"西屯路三段/玉門路370巷口",
         "sareaen":"Xitun Dist.",
         "snaen":"Focus Junior High School",
         "aren":" Sec. 3, Xitun Rd & Ln. 370, Yumen Rd Intersection",
         "bemp":"18",
         "act":"1"
      },
      "3136":{
         "sno":"3136",
         "sna":"潮洋環保公園",
         "tot":"40",
         "sbi":"25",
         "sarea":"西屯區",
         "mday":"20180828105143",
         "lat":"24.165920 ",
         "lng":"120.633370 ",
         "ar":"朝貴路/市政北二路口",
         "sareaen":"Xitun Dist.",
         "snaen":"Chao Yang Environmental Park",
         "aren":"Chaogui Rd & Shizheng N. 2nd Rd Intersection",
         "bemp":"15",
         "act":"1"
      },
      "3137":{
         "sno":"3137",
         "sna":"東英停車場",
         "tot":"34",
         "sbi":"8",
         "sarea":"東區",
         "mday":"20180828105134",
         "lat":"24.14212",
         "lng":"120.70209",
         "ar":"東英九街 / 一心街口",
         "sareaen":"East Dist.",
         "snaen":"Dongying Parking Lot",
         "aren":" Dongying 9th St & Yixin St Intersection",
         "bemp":"26",
         "act":"1"
      },
      "3138":{
         "sno":"3138",
         "sna":"大興公園",
         "tot":"32",
         "sbi":"18",
         "sarea":"南屯區",
         "mday":"20180828105129",
         "lat":"24.13526",
         "lng":"120.65436",
         "ar":"南屯路二段/精誠南路口",
         "sareaen":"Nantun Dist.",
         "snaen":"Da Sing Park",
         "aren":" Sec. 2, Nantun Rd & Jingcheng S. Rd Intersection",
         "bemp":"14",
         "act":"1"
      },
      "3139":{
         "sno":"3139",
         "sna":"上安公園",
         "tot":"40",
         "sbi":"21",
         "sarea":"西屯區",
         "mday":"20180828105135",
         "lat":"24.17065",
         "lng":"120.64065",
         "ar":"上安路/上仁街口",
         "sareaen":"Xitun Dist.",
         "snaen":"Shang An Park",
         "aren":"Shang’an Rd & Shangren St Intersection ",
         "bemp":"19",
         "act":"1"
      },
      "3140":{
         "sno":"3140",
         "sna":"世斌公園",
         "tot":"32",
         "sbi":"19",
         "sarea":"西屯區",
         "mday":"20180828105121",
         "lat":"24.18219",
         "lng":"120.61962",
         "ar":"永福路/福安路88巷口",
         "sareaen":"Xitun Dist.",
         "snaen":"Shih Bin Park",
         "aren":"Yongfu Rd & Ln. 88, Fu’an Rd Intersection",
         "bemp":"13",
         "act":"1"
      },
      "3141":{
         "sno":"3141",
         "sna":"台中文化創意產業園區",
         "tot":"50",
         "sbi":"21",
         "sarea":"南區",
         "mday":"20180828105134",
         "lat":"24.13333",
         "lng":"120.68052",
         "ar":"復興路三段/民生路口",
         "sareaen":"South Dist.",
         "snaen":"'Taichung Cultural & Creative Industries  Park'",
         "aren":" Sec. 3, Fuxing Rd & Minsheng Rd Intersection",
         "bemp":"29",
         "act":"1"
      },
      "3142":{
         "sno":"3142",
         "sna":"兒二公園",
         "tot":"30",
         "sbi":"20",
         "sarea":"烏日區",
         "mday":"20180828105128",
         "lat":"24.106030 ",
         "lng":"120.616910 ",
         "ar":"中山路二段/新興路口",
         "sareaen":"Wu Ri Dist.",
         "snaen":"Children's 2nd Park",
         "aren":" Sec. 2, Zhongshan Rd & Xinxing Rd Intersection",
         "bemp":"10",
         "act":"1"
      },
      "3143":{
         "sno":"3143",
         "sna":"松竹捷運站",
         "tot":"50",
         "sbi":"17",
         "sarea":"北屯區",
         "mday":"20180828105116",
         "lat":"24.18206",
         "lng":"120.7014",
         "ar":"松竹路二段/北屯路口",
         "sareaen":"Beitun Dist.",
         "snaen":"Songzhu MRT Station",
         "aren":" Sec. 2, Songzhu Rd & Beitun Rd Intersection",
         "bemp":"33",
         "act":"1"
      },
      "3144":{
         "sno":"3144",
         "sna":"三分埔公園",
         "tot":"34",
         "sbi":"8",
         "sarea":"北屯區",
         "mday":"20180828105144",
         "lat":"24.17922",
         "lng":"120.68521",
         "ar":"崇德五路 / 河北東街口",
         "sareaen":"Beitun Dist.",
         "snaen":"San Fen Pu Park",
         "aren":" Chongde 5th Rd & Hebei E. St Intersection",
         "bemp":"25",
         "act":"1"
      },
      "3145":{
         "sno":"3145",
         "sna":"蓬勃運動中心",
         "tot":"42",
         "sbi":"23",
         "sarea":"北屯區",
         "mday":"20180828105140",
         "lat":"24.1764",
         "lng":"120.67659",
         "ar":"山西路二段/安順北一街口",
         "sareaen":"Beitun Dist.",
         "snaen":"Pengbo Sports Center",
         "aren":"Sec. 2, Shanxi RD & And hi N. 1st ST Internation ",
         "bemp":"19",
         "act":"1"
      },
      "3146":{
         "sno":"3146",
         "sna":"太原停車場",
         "tot":"30",
         "sbi":"8",
         "sarea":"北屯區",
         "mday":"20180828105134",
         "lat":"24.162640 ",
         "lng":"120.721460 ",
         "ar":"太原路三段/建和路一段路口",
         "sareaen":"Beitun Dist.",
         "snaen":"Taiyuan Parking Lot",
         "aren":" Sec. 3, Taiyuan Rd & Sec. 1, Jianhe Rd Intersection",
         "bemp":"22",
         "act":"1"
      },
      "3147":{
         "sno":"3147",
         "sna":"大仁公園",
         "tot":"34",
         "sbi":"28",
         "sarea":"西屯區",
         "mday":"20180828105122",
         "lat":"24.16569",
         "lng":"120.65929",
         "ar":"甘肅路一段/甘州六街口",
         "sareaen":"Xitun Dist.",
         "snaen":"Da Ren Park",
         "aren":" Sec. 1, Gansu Rd & Ganzhou 6th St Intersection",
         "bemp":"6",
         "act":"1"
      },
      "3148":{
         "sno":"3148",
         "sna":"長春兒童公園",
         "tot":"30",
         "sbi":"12",
         "sarea":"大里區",
         "mday":"20180828105132",
         "lat":"24.08933",
         "lng":"120.691380 ",
         "ar":"長春路78巷/長春路78巷31弄口",
         "sareaen":"Dali Dist.",
         "snaen":"Chang Chun Children's Park",
         "aren":" Ln. 78, Changchun Rd & Aly. 31, Ln. 78, Changchun Rd Intersection",
         "bemp":"18",
         "act":"1"
      },
      "3149":{
         "sno":"3149",
         "sna":"臺灣大道玉門路口",
         "tot":"34",
         "sbi":"19",
         "sarea":"西屯區",
         "mday":"20180828105125",
         "lat":"24.18425",
         "lng":"120.60975",
         "ar":"臺灣大道四段/玉門路口",
         "sareaen":"Xitun Dist.",
         "snaen":"Taiwan Blvd. / Yumen Rd.",
         "aren":"Sec. 4, Taiwan Blvd & Yumen Rd Intersection",
         "bemp":"15",
         "act":"1"
      },
      "3150":{
         "sno":"3150",
         "sna":"國安一號公園",
         "tot":"30",
         "sbi":"12",
         "sarea":"西屯區",
         "mday":"20180828105131",
         "lat":"24.19061",
         "lng":"120.61472",
         "ar":"國安一路/福林路口",
         "sareaen":"Xitun Dist.",
         "snaen":"Guoan 1st Park",
         "aren":" Guo’an 1st Rd & Fulin Rd Intersection ",
         "bemp":"18",
         "act":"1"
      },
      "3151":{
         "sno":"3151",
         "sna":"立新國中",
         "tot":"32",
         "sbi":"14",
         "sarea":"大里區",
         "mday":"20180828105132",
         "lat":"24.10441",
         "lng":"120.69877",
         "ar":"立新二街/自立路口",
         "sareaen":"Dali Dist.",
         "snaen":"Li Shin Junior High School",
         "aren":" Lixin 2nd St & Zili Rd Intersection",
         "bemp":"18",
         "act":"1"
      },
      "3152":{
         "sno":"3152",
         "sna":"公館公園",
         "tot":"38",
         "sbi":"16",
         "sarea":"西區",
         "mday":"20180828105125",
         "lat":"24.13239",
         "lng":"120.66929",
         "ar":"三民路一段/自由路一段口",
         "sareaen":"West Dist.",
         "snaen":"Gong Guan Park",
         "aren":" Sec. 1, Sanmin Rd & Sec. 1, Ziyou Rd Intersection",
         "bemp":"22",
         "act":"1"
      },
      "3153":{
         "sno":"3153",
         "sna":"大里區公所",
         "tot":"32",
         "sbi":"16",
         "sarea":"大里區",
         "mday":"20180828105121",
         "lat":"24.09934",
         "lng":"120.67711",
         "ar":"新興路/大新街口",
         "sareaen":"Dali Dist.",
         "snaen":"Dali District Office",
         "aren":" Xinxing Rd & Daxin St Intersection",
         "bemp":"16",
         "act":"1"
      },
      "3154":{
         "sno":"3154",
         "sna":"大明兒童公園",
         "tot":"36",
         "sbi":"10",
         "sarea":"大里區",
         "mday":"20180828105130",
         "lat":"24.11513",
         "lng":"120.67852",
         "ar":"大明路366巷/大明路口",
         "sareaen":"Dali Dist.",
         "snaen":"Da Min Children's Park",
         "aren":" Ln. 366, Daming Rd & Daming Rd Intersection",
         "bemp":"26",
         "act":"1"
      },
      "3155":{
         "sno":"3155",
         "sna":"十九甲健康公園",
         "tot":"30",
         "sbi":"7",
         "sarea":"大里區",
         "mday":"20180828105138",
         "lat":"24.09988",
         "lng":"120.69476",
         "ar":"立元路/甲園街口",
         "sareaen":"Dali Dist.",
         "snaen":"Shijiujia Jiankang Park",
         "aren":"Liyuan Rd  & Jiayuan St Intersection",
         "bemp":"23",
         "act":"1"
      },
      "3156":{
         "sno":"3156",
         "sna":"土庫公園",
         "tot":"30",
         "sbi":"14",
         "sarea":"西區",
         "mday":"20180828105120",
         "lat":"24.13652",
         "lng":"120.65786",
         "ar":"五權五街/五權西六街136巷口",
         "sareaen":"West Dist.",
         "snaen":"Tu Ku Park",
         "aren":" Wuquan 5th St & Ln. 136, Wuquan W. 6th St Intersection",
         "bemp":"15",
         "act":"1"
      },
      "3157":{
         "sno":"3157",
         "sna":"正心兒童公園",
         "tot":"40",
         "sbi":"20",
         "sarea":"南屯區",
         "mday":"20180828105140",
         "lat":"24.13593",
         "lng":"120.64998",
         "ar":"大墩南路/文心南二路口",
         "sareaen":"Nantun Dist.",
         "snaen":"Jheng Sin Children's Park",
         "aren":"Dadun S. Rd & Wenxin S. 2nd Rd  Intersection ",
         "bemp":"19",
         "act":"1"
      },
      "3158":{
         "sno":"3158",
         "sna":"萬和國中",
         "tot":"36",
         "sbi":"13",
         "sarea":"南屯區",
         "mday":"20180828105130",
         "lat":"24.13354",
         "lng":"120.63961",
         "ar":"文心南三路/豐安街口",
         "sareaen":"Nantun Dist.",
         "snaen":"Wan He Junior High School",
         "aren":" Wenxin S. 3rd Rd & Feng’an St Intersection",
         "bemp":"23",
         "act":"1"
      },
      "3159":{
         "sno":"3159",
         "sna":"復興停車場",
         "tot":"36",
         "sbi":"17",
         "sarea":"南區",
         "mday":"20180828105124",
         "lat":"24.13175",
         "lng":"120.67634",
         "ar":"復興路三段/國光路口",
         "sareaen":"South Dist.",
         "snaen":"Fuxing Parking Lot",
         "aren":" Sec. 3, Fuxing Rd & Guoguang Rd Intersection",
         "bemp":"19",
         "act":"1"
      },
      "3160":{
         "sno":"3160",
         "sna":"樂利公園",
         "tot":"32",
         "sbi":"14",
         "sarea":"東區",
         "mday":"20180828105138",
         "lat":"24.13885",
         "lng":"120.70752",
         "ar":"十甲東路/東英六街口",
         "sareaen":"East Dist.",
         "snaen":"Leli Park",
         "aren":" Shijia E. Rd & Dongying 6th St Intersection",
         "bemp":"18",
         "act":"1"
      },
      "3161":{
         "sno":"3161",
         "sna":"進業公園",
         "tot":"36",
         "sbi":"17",
         "sarea":"東區",
         "mday":"20180828105127",
         "lat":"24.1463",
         "lng":"120.70959",
         "ar":"十甲東路/東英十五街口",
         "sareaen":"East Dist.",
         "snaen":"Jinye Park",
         "aren":" Shijia E. Rd & Dongying 15th St Intersection",
         "bemp":"17",
         "act":"1"
      },
      "3162":{
         "sno":"3162",
         "sna":"霧峰農工",
         "tot":"44",
         "sbi":"14",
         "sarea":"霧峰區",
         "mday":"20180828105118",
         "lat":"24.07319 ",
         "lng":"120.69985 ",
         "ar":"中正路1222號前",
         "sareaen":"Wufeng Dist.",
         "snaen":"'Wufeng Agricultural And Industrial  Vocational High School'",
         "aren":" No.1222, Zhongzheng Rd",
         "bemp":"30",
         "act":"1"
      },
      "3163":{
         "sno":"3163",
         "sna":"烏日圖書館",
         "tot":"32",
         "sbi":"12",
         "sarea":"烏日區",
         "mday":"20180828105133",
         "lat":"24.10924",
         "lng":"120.6371",
         "ar":"長春街/長春街317巷口",
         "sareaen":"Wu Ri Dist.",
         "snaen":"Wuri Library",
         "aren":"Changchun St & Ln. 317, Changchun St  Intersection ",
         "bemp":"20",
         "act":"1"
      },
      "3164":{
         "sno":"3164",
         "sna":"霧峰區公所",
         "tot":"36",
         "sbi":"19",
         "sarea":"霧峰區",
         "mday":"20180828105123",
         "lat":"24.0615",
         "lng":"120.70012",
         "ar":"大同路/民生路口",
         "sareaen":"Wufeng Dist.",
         "snaen":"Wufeng District Office",
         "aren":"Datong Rd  & Minsheng Rd  Intersection",
         "bemp":"16",
         "act":"1"
      },
      "3165":{
         "sno":"3165",
         "sna":"軍功公園",
         "tot":"30",
         "sbi":"11",
         "sarea":"北屯區",
         "mday":"20180828105119",
         "lat":"24.18200 ",
         "lng":"120.71982 ",
         "ar":"松竹路一段/軍功路二段口",
         "sareaen":"Beitun Dist.",
         "snaen":"Jungong Park",
         "aren":"Sec. 1, Songzhu Rd & Sec. 2, Jungong Rd Intersection",
         "bemp":"19",
         "act":"1"
      },
      "3166":{
         "sno":"3166",
         "sna":"和福公園",
         "tot":"34",
         "sbi":"12",
         "sarea":"北屯區",
         "mday":"20180828105127",
         "lat":"24.17032",
         "lng":"120.72337",
         "ar":"軍福十路/和福路口",
         "sareaen":"Beitun Dist.",
         "snaen":"He Fu Park",
         "aren":" Junfu 10th Rd & Hefu Rd Intersection",
         "bemp":"22",
         "act":"1"
      },
      "3167":{
         "sno":"3167",
         "sna":"雙十育樂街口",
         "tot":"34",
         "sbi":"11",
         "sarea":"北區",
         "mday":"20180828105126",
         "lat":"24.15778",
         "lng":"120.69097",
         "ar":"雙十路二段/育樂街口",
         "sareaen":"North Dist.",
         "snaen":"Shuangshi Rd. / Yule St.",
         "aren":"Sec. 2, Shuangshi Rd & Yule St Intersection ",
         "bemp":"22",
         "act":"1"
      },
      "3168":{
         "sno":"3168",
         "sna":"自治公園",
         "tot":"30",
         "sbi":"15",
         "sarea":"烏日區",
         "mday":"20180828105121",
         "lat":"24.101880 ",
         "lng":"120.628350 ",
         "ar":"公園路/五光路口",
         "sareaen":"Wu Ri Dist.",
         "snaen":"Zi Zhi Park",
         "aren":" Gongyuan Rd & Wuguang Rd Intersection",
         "bemp":"15",
         "act":"1"
      },
      "3169":{
         "sno":"3169",
         "sna":"曉明公園",
         "tot":"32",
         "sbi":"12",
         "sarea":"北區",
         "mday":"20180828105128",
         "lat":"24.16808",
         "lng":"120.67118",
         "ar":"陜西東五街/漢陽西街口",
         "sareaen":"North Dist.",
         "snaen":"Siaoming Park",
         "aren":" Shanxi E. 5th St & Hanyang W. St Intersection",
         "bemp":"20",
         "act":"1"
      },
      "3170":{
         "sno":"3170",
         "sna":"三信公園",
         "tot":"32",
         "sbi":"10",
         "sarea":"西屯區",
         "mday":"20180828105120",
         "lat":"24.16623",
         "lng":"120.66372",
         "ar":"漢口路二段/寧漢三街口",
         "sareaen":"Xitun Dist.",
         "snaen":"Sanxin Park",
         "aren":" Sec. 2, Hankou Rd & Ninghan 3rd St Intersection",
         "bemp":"22",
         "act":"1"
      },
      "3171":{
         "sno":"3171",
         "sna":"武昌公園",
         "tot":"40",
         "sbi":"14",
         "sarea":"北區",
         "mday":"20180828105135",
         "lat":"24.16906",
         "lng":"120.66824",
         "ar":"陜西路/武昌路口",
         "sareaen":"North Dist.",
         "snaen":"Wuchang Park",
         "aren":" Shanxi Rd & Wuchang Rd Intersection",
         "bemp":"24",
         "act":"1"
      },
      "3172":{
         "sno":"3172",
         "sna":"內新國小",
         "tot":"34",
         "sbi":"18",
         "sarea":"大里區",
         "mday":"20180828105138",
         "lat":"24.11141",
         "lng":"120.69517",
         "ar":"日新路/新仁路二段口",
         "sareaen":"Dali Dist.",
         "snaen":"Ne-Shin Elementary School",
         "aren":"Rixin Rd & Sec. 2, Xinren Rd Intersection ",
         "bemp":"16",
         "act":"1"
      },
      "3173":{
         "sno":"3173",
         "sna":"豐田公園",
         "tot":"32",
         "sbi":"14",
         "sarea":"北屯區",
         "mday":"20180828105137",
         "lat":"24.17392",
         "lng":"120.69675",
         "ar":"遼寧路一段/大連路三段口",
         "sareaen":"Beitun Dist.",
         "snaen":"Fengtian Park",
         "aren":" Sec. 1, Liaoning Rd & Sec. 3, Dalian Rd Intersection ",
         "bemp":"18",
         "act":"1"
      },
      "3174":{
         "sno":"3174",
         "sna":"經補庫停車場",
         "tot":"30",
         "sbi":"11",
         "sarea":"北屯區",
         "mday":"20180828105124",
         "lat":"24.17692",
         "lng":"120.73184",
         "ar":"東山路一段381-42號對面",
         "sareaen":"Beitun Dist.",
         "snaen":"Jing Bu Ku Parking Lot",
         "aren":"No.381-42, Sec. 1, Dongshan Rd",
         "bemp":"19",
         "act":"1"
      },
      "3175":{
         "sno":"3175",
         "sna":"南苑公園",
         "tot":"44",
         "sbi":"32",
         "sarea":"南屯區",
         "mday":"20180828105139",
         "lat":"24.13212",
         "lng":"120.64696",
         "ar":"文心南路/文心南五路一段口",
         "sareaen":"Nantun Dist.",
         "snaen":"Nanyuan Park",
         "aren":" Wenxin S. Rd & Sec. 1, Wenxin S. 5th Rd Intersection",
         "bemp":"11",
         "act":"1"
      },
      "3176":{
         "sno":"3176",
         "sna":"陽明大樓",
         "tot":"40",
         "sbi":"36",
         "sarea":"豐原區",
         "mday":"20180828105123",
         "lat":"24.24698",
         "lng":"120.721200 ",
         "ar":"陽明街/陽明街66巷口",
         "sareaen":"Fengyuan Dist.",
         "snaen":"Taichung City Hall-Yangming Building",
         "aren":"Yangming St & Ln. 66, Yangming St Intersection",
         "bemp":"4",
         "act":"1"
      },
      "3177":{
         "sno":"3177",
         "sna":"萬和宮",
         "tot":"40",
         "sbi":"21",
         "sarea":"南屯區",
         "mday":"20180828105130",
         "lat":"24.13768",
         "lng":"120.63903",
         "ar":"萬和路一段/文昌街口",
         "sareaen":"Nantun Dist.",
         "snaen":"Wan He Temple",
         "aren":"Sec. 1, Wanhe Rd & Wenchang St Intersection",
         "bemp":"18",
         "act":"1"
      },
      "3178":{
         "sno":"3178",
         "sna":"仁美公園",
         "tot":"36",
         "sbi":"13",
         "sarea":"北屯區",
         "mday":"20180828105122",
         "lat":"24.19044",
         "lng":"120.68614",
         "ar":"崇德路三段/崇德十二路口",
         "sareaen":"Beitun Dist.",
         "snaen":"Ren Mei Park",
         "aren":" Sec. 3, Chongde Rd & Chongde 12th Rd Intersection",
         "bemp":"22",
         "act":"1"
      },
      "3179":{
         "sno":"3179",
         "sna":"梅川園道",
         "tot":"30",
         "sbi":"16",
         "sarea":"北區",
         "mday":"20180828105132",
         "lat":"24.16158",
         "lng":"120.6766",
         "ar":"梅川東路三段/尚德街127巷口",
         "sareaen":"North Dist.",
         "snaen":"Meichuan Parkway",
         "aren":"'Sec. 3, Meichuan E. Rd  & Ln. 127, Shangde St Intersection'",
         "bemp":"14",
         "act":"1"
      },
      "3180":{
         "sno":"3180",
         "sna":"中平公園",
         "tot":"36",
         "sbi":"12",
         "sarea":"太平區",
         "mday":"20180828105123",
         "lat":"24.12079",
         "lng":"120.7207",
         "ar":"中平九街/太平路176巷口",
         "sareaen":"Taiping Dist.",
         "snaen":"Zhongping Park",
         "aren":"Zhongping 9th St & Ln. 176, Taiping Rd Intersection",
         "bemp":"23",
         "act":"1"
      },
      "3181":{
         "sno":"3181",
         "sna":"旱溪停車場",
         "tot":"30",
         "sbi":"11",
         "sarea":"東區",
         "mday":"20180828105126",
         "lat":"24.14082",
         "lng":"120.70916",
         "ar":"旱溪街/德興一街口",
         "sareaen":"East Dist.",
         "snaen":"Han Xi Parking Lot",
         "aren":" Hanxi St & Dexing 1st St Intersection",
         "bemp":"19",
         "act":"1"
      },
      "3182":{
         "sno":"3182",
         "sna":"國光公園(二二八廣場)",
         "tot":"36",
         "sbi":"18",
         "sarea":"大里區",
         "mday":"20180828105140",
         "lat":"24.1165",
         "lng":"120.67669",
         "ar":"興大南街/永隆街口",
         "sareaen":"Dali Dist.",
         "snaen":"Guoguang Park (228 Plaza)",
         "aren":"Xingda S. St  & Yonglong Rd Intersection",
         "bemp":"17",
         "act":"1"
      },
      "3183":{
         "sno":"3183",
         "sna":"文心國小",
         "tot":"44",
         "sbi":"15",
         "sarea":"北屯區",
         "mday":"20180828105132",
         "lat":"24.1732",
         "lng":"120.68178",
         "ar":"綏遠路二段/文心路四段口",
         "sareaen":"Beitun Dist.",
         "snaen":"Wunsin Elementary School",
         "aren":"Sec. 2, Suiyuan Rd & Sec. 4, Wenxin Rd Intersection ",
         "bemp":"28",
         "act":"1"
      },
      "3184":{
         "sno":"3184",
         "sna":"消防公園",
         "tot":"32",
         "sbi":"10",
         "sarea":"豐原區",
         "mday":"20180828105128",
         "lat":"24.26208 ",
         "lng":"120.71317 ",
         "ar":"仁洲街/豐原大道七段口",
         "sareaen":"Fengyuan Dist.",
         "snaen":"Fire Park",
         "aren":"Renzhou St & Sec. 7, Fengyuan Blvd Intersection",
         "bemp":"20",
         "act":"1"
      },
      "3185":{
         "sno":"3185",
         "sna":"進士公園",
         "tot":"30",
         "sbi":"9",
         "sarea":"大里區",
         "mday":"20180828105139",
         "lat":"24.1026",
         "lng":"120.67473",
         "ar":"爽文路/德芳路三段口",
         "sareaen":"Dali Dist.",
         "snaen":"Jìnshì Park",
         "aren":"Shuangwen Rd & Sec. 3, Defang Rd Intersection",
         "bemp":"21",
         "act":"1"
      },
      "3186":{
         "sno":"3186",
         "sna":"黎光公園",
         "tot":"34",
         "sbi":"8",
         "sarea":"南屯區",
         "mday":"20180828105141",
         "lat":"24.15187",
         "lng":"120.63052",
         "ar":"干城街/懷德街口",
         "sareaen":"Nantun Dist.",
         "snaen":"Liguang Park",
         "aren":"Gancheng St & Huaide St Intersection ",
         "bemp":"26",
         "act":"1"
      },
      "3187":{
         "sno":"3187",
         "sna":"保安公園",
         "tot":"52",
         "sbi":"35",
         "sarea":"南屯區",
         "mday":"20180828105121",
         "lat":"24.14725",
         "lng":"120.6122",
         "ar":"文山五街/保安五街口",
         "sareaen":"Nantun Dist.",
         "snaen":"Baoan Park",
         "aren":"Wenshan 5th St  &  Bao’an 5th St Intersection ",
         "bemp":"17",
         "act":"1"
      },
      "3188":{
         "sno":"3188",
         "sna":"景美公園",
         "tot":"50",
         "sbi":"8",
         "sarea":"北屯區",
         "mday":"20180828105143",
         "lat":"24.17818",
         "lng":"120.71103",
         "ar":"旱溪東路三段/軍福十八路口",
         "sareaen":"Beitun Dist.",
         "snaen":"Jingmei Park",
         "aren":"Sec. 3, Hanxi E. Rd & Junfu 18th Rd Intersection ",
         "bemp":"41",
         "act":"1"
      },
      "3189":{
         "sno":"3189",
         "sna":"清水牛罵頭停車場",
         "tot":"30",
         "sbi":"10",
         "sarea":"清水區",
         "mday":"20180828105129",
         "lat":"24.26851",
         "lng":"120.5742",
         "ar":"光華路/光華路137巷口",
         "sareaen":"Qingshui Dist.",
         "snaen":"Qingshui Niumatou Parking Lot",
         "aren":"Guanghua Rd & Ln. 137, Guanghua Rd Intersection",
         "bemp":"20",
         "act":"1"
      },
      "3190":{
         "sno":"3190",
         "sna":"豐原國中",
         "tot":"40",
         "sbi":"30",
         "sarea":"豐原區",
         "mday":"20180828105116",
         "lat":"24.26123",
         "lng":"120.71971",
         "ar":"三豐路一段/豐北街口",
         "sareaen":"Fengyuan Dist.",
         "snaen":"Fong Yuan Junior High School",
         "aren":"Sec. 1, Sanfeng Rd & Fengbei St Intersection",
         "bemp":"10",
         "act":"1"
      },
      "3191":{
         "sno":"3191",
         "sna":"春社公園",
         "tot":"52",
         "sbi":"14",
         "sarea":"南屯區",
         "mday":"20180828105133",
         "lat":"24.14051",
         "lng":"120.61049",
         "ar":"永春路/永春北路口",
         "sareaen":"Nantun Dist.",
         "snaen":"Chunshe Park",
         "aren":"Yongchun Rd  & Yongchun N. Rd Intersection",
         "bemp":"38",
         "act":"1"
      },
      "3192":{
         "sno":"3192",
         "sna":"新興國小",
         "tot":"36",
         "sbi":"9",
         "sarea":"北屯區",
         "mday":"20180828105125",
         "lat":"24.19443",
         "lng":"120.66225",
         "ar":"新興路/同榮路7巷口",
         "sareaen":"Beitun Dist.",
         "snaen":"Xin Xing Elementary School ",
         "aren":"Xinxing Rd & Ln. 7, Tongrong Rd  Intersection",
         "bemp":"26",
         "act":"1"
      },
      "3193":{
         "sno":"3193",
         "sna":"豐原區公所",
         "tot":"34",
         "sbi":"15",
         "sarea":"豐原區",
         "mday":"20180828105139",
         "lat":"24.24243",
         "lng":"120.71827",
         "ar":"市政路/育仁路口",
         "sareaen":"Fengyuan Dist.",
         "snaen":"Fengyuan District Office",
         "aren":"Shizheng Rd & Yuren Rd  Intersection",
         "bemp":"19",
         "act":"1"
      },
      "3194":{
         "sno":"3194",
         "sna":"南陽公園",
         "tot":"40",
         "sbi":"12",
         "sarea":"豐原區",
         "mday":"20180828105121",
         "lat":"24.24111",
         "lng":"120.72528",
         "ar":"永康路/永康路211巷口",
         "sareaen":"Fengyuan Dist.",
         "snaen":"Nanyang Park",
         "aren":"Yongkang Rd  & Ln. 211, Yongkang Rd Intersection",
         "bemp":"27",
         "act":"1"
      },
      "3195":{
         "sno":"3195",
         "sna":"崇倫國中",
         "tot":"30",
         "sbi":"9",
         "sarea":"南區",
         "mday":"20180828105133",
         "lat":"24.13259 ",
         "lng":"120.65741 ",
         "ar":"忠明南路/ 南屯路一段口(崇倫公園南側入口處)",
         "sareaen":"South Dist.",
         "snaen":"Chung-Lun Junior High School",
         "aren":"Zhongming S. Rd  & Sec. 1, Nantun Rd Intersection(South Side Chung-Lun Park )",
         "bemp":"21",
         "act":"1"
      },
      "3196":{
         "sno":"3196",
         "sna":"進化廣場",
         "tot":"34",
         "sbi":"18",
         "sarea":"北區",
         "mday":"20180828105125",
         "lat":"24.15525",
         "lng":"120.69332",
         "ar":"興進路/育興街口",
         "sareaen":"North Dist.",
         "snaen":"Jinhua Square",
         "aren":"Xingjin Rd / Yuxing St Intersection",
         "bemp":"16",
         "act":"1"
      },
      "3197":{
         "sno":"3197",
         "sna":"青年公園",
         "tot":"30",
         "sbi":"19",
         "sarea":"大里區",
         "mday":"20180828105120",
         "lat":"24.08492",
         "lng":"120.69363",
         "ar":"公園街/公園街421巷口",
         "sareaen":"Dali Dist.",
         "snaen":"Youth Park",
         "aren":"Gongyuan St & Ln. 421, Gongyuan St  Intersection",
         "bemp":"10",
         "act":"1"
      },
      "3198":{
         "sno":"3198",
         "sna":"臺灣大道福林路口",
         "tot":"30",
         "sbi":"20",
         "sarea":"西屯區",
         "mday":"20180828105140",
         "lat":"24.18361",
         "lng":"120.61377",
         "ar":"臺灣大道四段/福林路口",
         "sareaen":"Xitun Dist.",
         "snaen":"Taiwan Blvd. / Fulin Rd.",
         "aren":"Sec. 4, Taiwan Blvd & Fulin Rd Intersection",
         "bemp":"10",
         "act":"1"
      },
      "3199":{
         "sno":"3199",
         "sna":"新光國小",
         "tot":"36",
         "sbi":"21",
         "sarea":"太平區",
         "mday":"20180828105126",
         "lat":"24.15943",
         "lng":"120.70703",
         "ar":"新興路/新福路口",
         "sareaen":"Taiping Dist.",
         "snaen":"Shin Kang Elementary School",
         "aren":"Xinxing Rd & Xinfu Rd Intersection",
         "bemp":"15",
         "act":"1"
      },
      "3200":{
         "sno":"3200",
         "sna":"廍興公園",
         "tot":"36",
         "sbi":"16",
         "sarea":"北屯區",
         "mday":"20180828105115",
         "lat":"24.15934",
         "lng":"120.72069",
         "ar":"樹孝路/太順路口",
         "sareaen":"Beitun Dist.",
         "snaen":"Busing Park",
         "aren":"Shuxiao Rd & Taishun Rd Intersection",
         "bemp":"19",
         "act":"1"
      },
      "3201":{
         "sno":"3201",
         "sna":"進德國小",
         "tot":"32",
         "sbi":"14",
         "sarea":"東區",
         "mday":"20180828105134",
         "lat":"24.14607",
         "lng":"120.69429",
         "ar":"進化路/福明街口",
         "sareaen":"East Dist.",
         "snaen":"Jin De Elementary School",
         "aren":"Jinhua Rd & Fuming St Intersection",
         "bemp":"18",
         "act":"1"
      },
      "3202":{
         "sno":"3202",
         "sna":"潭子國小",
         "tot":"48",
         "sbi":"19",
         "sarea":"潭子區",
         "mday":"20180828105144",
         "lat":"24.21325",
         "lng":"120.70494",
         "ar":"中山路二段391巷/中山路二段口",
         "sareaen":"Tanzi Dist.",
         "snaen":"Tanzi Elementary School",
         "aren":"Ln. 391, Sec. 2, Zhongshan Rd & Sec. 2, Zhongshan Rd Intersection",
         "bemp":"29",
         "act":"1"
      },
      "3203":{
         "sno":"3203",
         "sna":"松竹國小",
         "tot":"36",
         "sbi":"12",
         "sarea":"北屯區",
         "mday":"20180828105141",
         "lat":"24.18041 ",
         "lng":"120.69046 ",
         "ar":"崇德六路一段/昌平路二段4巷口",
         "sareaen":"Beitun Dist.",
         "snaen":"Song Jhu Elementary School",
         "aren":"Sec. 1, Chongde 6th Rd & Ln. 4, Sec. 2, Changping Rd Intersection",
         "bemp":"24",
         "act":"1"
      },
      "3204":{
         "sno":"3204",
         "sna":"老樹公園",
         "tot":"30",
         "sbi":"15",
         "sarea":"北屯區",
         "mday":"20180828105144",
         "lat":"24.18259",
         "lng":"120.66228",
         "ar":"經貿一路/順平路口",
         "sareaen":"Beitun Dist.",
         "snaen":"Laoshu Park",
         "aren":"Jingmao 1st Rd & Chenping Rd Intersection",
         "bemp":"15",
         "act":"1"
      },
      "3205":{
         "sno":"3205",
         "sna":"健康公園附設停車場",
         "tot":"36",
         "sbi":"19",
         "sarea":"南區",
         "mday":"20180828105143",
         "lat":"24.12096",
         "lng":"120.66988",
         "ar":"五權南路/五權南路380巷(西北側)",
         "sareaen":"South Dist.",
         "snaen":"JianKang Park Parking Lot",
         "aren":"Wuquan S. Rd & Ln. 380, Wuquan S. Rd Intersection(North West)",
         "bemp":"17",
         "act":"1"
      },
      "3206":{
         "sno":"3206",
         "sna":"臺中市港區藝術中心",
         "tot":"36",
         "sbi":"15",
         "sarea":"清水區",
         "mday":"20180828105134",
         "lat":"24.26935",
         "lng":"120.55791",
         "ar":"鎮政路/忠貞路口",
         "sareaen":"Qingshui Dist.",
         "snaen":"Taichung City Seaport Art Center",
         "aren":" Zhenzheng Rd & Zhongzhen Rd Intersection",
         "bemp":"21",
         "act":"1"
      },
      "3207":{
         "sno":"3207",
         "sna":"烏日區公所",
         "tot":"34",
         "sbi":"13",
         "sarea":"烏日區",
         "mday":"20180828105135",
         "lat":"24.10461 ",
         "lng":"120.62355 ",
         "ar":"新興路/光日路口",
         "sareaen":"Wu Ri Dist.",
         "snaen":"Wuri District Office",
         "aren":"Xinxing Rd & Guangri Rd Intersection",
         "bemp":"21",
         "act":"1"
      },
      "3208":{
         "sno":"3208",
         "sna":"清水運動場",
         "tot":"30",
         "sbi":"12",
         "sarea":"清水區",
         "mday":"20180828105141",
         "lat":"24.27824",
         "lng":"120.55876",
         "ar":"五權路/五權二街口",
         "sareaen":"Qingshui Dist.",
         "snaen":"Qingshui Gymnasium",
         "aren":"Wuquan Rd & Wuquan 2st St Intersection",
         "bemp":"18",
         "act":"1"
      },
      "3209":{
         "sno":"3209",
         "sna":"軍功國小",
         "tot":"30",
         "sbi":"8",
         "sarea":"北屯區",
         "mday":"20180828105117",
         "lat":"24.17294",
         "lng":"120.71896",
         "ar":"軍功路一段/軍福十三路口",
         "sareaen":"Beitun Dist.",
         "snaen":"Jyun Gong Elementary School",
         "aren":"Sec. 1, Jungong Rd  & Junfu 13th Rd Intersection ",
         "bemp":"22",
         "act":"1"
      },
      "3210":{
         "sno":"3210",
         "sna":"南屯區公所",
         "tot":"32",
         "sbi":"9",
         "sarea":"南屯區",
         "mday":"20180828105136",
         "lat":"24.13467",
         "lng":"120.64454",
         "ar":"永春東路/永春東路515巷",
         "sareaen":"Nantun Dist.",
         "snaen":"Nantun District Office",
         "aren":"Yongchun E. Rd & Ln. 515, Yongchun E. Rd Intersection",
         "bemp":"23",
         "act":"1"
      },
      "3211":{
         "sno":"3211",
         "sna":"長福公園",
         "tot":"30",
         "sbi":"18",
         "sarea":"東區",
         "mday":"20180828105118",
         "lat":"24.14402 ",
         "lng":"120.70205 ",
         "ar":"長福路/旱溪東路一段口",
         "sareaen":"East Dist.",
         "snaen":"Changfu Park",
         "aren":"Changfu Rd / Sec. 1, Hanxi E. Rd Intersection",
         "bemp":"11",
         "act":"1"
      },
      "3212":{
         "sno":"3212",
         "sna":"臺中加工出口區",
         "tot":"32",
         "sbi":"20",
         "sarea":"潭子區",
         "mday":"20180828105121",
         "lat":"24.21707 ",
         "lng":"120.70539 ",
         "ar":"中山路二段/南環路口",
         "sareaen":"Tanzi Dist.",
         "snaen":"Taichung Export Processing Zone ",
         "aren":"Sec. 2, Zhongshan Rd & Nanhuan Rd Intersection",
         "bemp":"12",
         "act":"1"
      },
      "3213":{
         "sno":"3213",
         "sna":"立法院中部辦公室",
         "tot":"32",
         "sbi":"13",
         "sarea":"霧峰區",
         "mday":"20180828105123",
         "lat":"24.05584 ",
         "lng":"120.69742 ",
         "ar":"中正路/蘭生街口",
         "sareaen":"Wufeng Dist.",
         "snaen":"Central Region Office, The Legislative Yuan",
         "aren":"Zhongzheng Rd & Lansheng St Intersection",
         "bemp":"19",
         "act":"1"
      },
      "3214":{
         "sno":"3214",
         "sna":"臺中轉運站",
         "tot":"52",
         "sbi":"34",
         "sarea":"東區",
         "mday":"20180828105137",
         "lat":"24.13887 ",
         "lng":"120.68755 ",
         "ar":"八德街/武德街口(停車場東南側)",
         "sareaen":"East Dist.",
         "snaen":"Taichung Bus Station",
         "aren":"Bade St & Wude St Intersection(Southeast Side Parking Lot)",
         "bemp":"17",
         "act":"1"
      },
      "3215":{
         "sno":"3215",
         "sna":"臺中市議會",
         "tot":"34",
         "sbi":"10",
         "sarea":"西屯區",
         "mday":"20180828105144",
         "lat":"24.158050 ",
         "lng":"120.644030 ",
         "ar":"市政北一路/惠文路口",
         "sareaen":"Xitun Dist.",
         "snaen":"Taichung City Council",
         "aren":"Shizheng N. 1st Rd & Huiwen Rd Intersection",
         "bemp":"24",
         "act":"1"
      },
      "3216":{
         "sno":"3216",
         "sna":"五權西忠明南路口",
         "tot":"32",
         "sbi":"11",
         "sarea":"西區",
         "mday":"20180828105132",
         "lat":"24.139770 ",
         "lng":"120.657080 ",
         "ar":"五權西路一段/忠明南路口",
         "sareaen":"West Dist.",
         "snaen":"Wuquan W./ Zhongming S.",
         "aren":"Sec. 1, Wuquan W. Rd & Zhongming S. Rd Intersection",
         "bemp":"21",
         "act":"1"
      },
      "3217":{
         "sno":"3217",
         "sna":"高美濕地第一停車場",
         "tot":"50",
         "sbi":"37",
         "sarea":"清水區",
         "mday":"20180828105122",
         "lat":"24.302520 ",
         "lng":"120.546430 ",
         "ar":"高美路/美堤街口",
         "sareaen":"Qingshui Dist.",
         "snaen":"Gaomei Wetlands 1st Parking",
         "aren":"Gaomei Rd & Meiti St Intersection",
         "bemp":"13",
         "act":"1"
      },
      "3218":{
         "sno":"3218",
         "sna":"高美濕地第二停車場",
         "tot":"38",
         "sbi":"29",
         "sarea":"清水區",
         "mday":"20180828105137",
         "lat":"24.295600 ",
         "lng":"120.544100 ",
         "ar":"臨港路六段100號(北側)",
         "sareaen":"Qingshui Dist.",
         "snaen":"Gaomei Wetlands 2nd Parking",
         "aren":"No.100, Sec. 6, Lingang Rd (North)",
         "bemp":"9",
         "act":"1"
      },
      "3219":{
         "sno":"3219",
         "sna":"美術館園道",
         "tot":"34",
         "sbi":"8",
         "sarea":"西區",
         "mday":"20180828105144",
         "lat":"24.135080 ",
         "lng":"120.662870 ",
         "ar":"五權七街/五權西四街口",
         "sareaen":"West Dist.",
         "snaen":"Art Museum Parkway",
         "aren":"Wuquan 7th St & Wuquan W. 4th St Intersection",
         "bemp":"26",
         "act":"1"
      },
      "3220":{
         "sno":"3220",
         "sna":"烏日國小",
         "tot":"36",
         "sbi":"29",
         "sarea":"烏日區",
         "mday":"20180828105127",
         "lat":"24.10829 ",
         "lng":"120.62334 ",
         "ar":"平等路/憬學街口",
         "sareaen":"Wu Ri Dist.",
         "snaen":"Wurih Elementary School",
         "aren":"Pingdeng St & Jingxue St Intersection",
         "bemp":"7",
         "act":"1"
      },
      "3221":{
         "sno":"3221",
         "sna":"長青活動中心",
         "tot":"32",
         "sbi":"18",
         "sarea":"大甲區",
         "mday":"20180828105118",
         "lat":"24.340690 ",
         "lng":"120.627020 ",
         "ar":"水源路/甲東路口",
         "sareaen":"Dajia Dist.",
         "snaen":" Chang Cing Activity Center",
         "aren":"Shuiyuan Rd & Jiadong Rd Intersection",
         "bemp":"14",
         "act":"1"
      },
      "3222":{
         "sno":"3222",
         "sna":"文昌國小",
         "tot":"36",
         "sbi":"19",
         "sarea":"大甲區",
         "mday":"20180828105125",
         "lat":"24.34761",
         "lng":"120.62419",
         "ar":"育德路/民生路口",
         "sareaen":"Dajia Dist.",
         "snaen":"Wenchang Elementary School",
         "aren":"Yude Rd & Minsheng Rd Intersection",
         "bemp":"17",
         "act":"1"
      },
      "3223":{
         "sno":"3223",
         "sna":"順天國小",
         "tot":"36",
         "sbi":"12",
         "sarea":"大甲區",
         "mday":"20180828105134",
         "lat":"24.34415",
         "lng":"120.61746",
         "ar":"經國路/新美街口",
         "sareaen":"Dajia Dist.",
         "snaen":"Shuen Tian Elementary School",
         "aren":"Jingguo Rd & Xinmei St Intersection",
         "bemp":"24",
         "act":"1"
      },
      "3224":{
         "sno":"3224",
         "sna":"文修公園",
         "tot":"36",
         "sbi":"17",
         "sarea":"西屯區",
         "mday":"20180828105138",
         "lat":"24.182340 ",
         "lng":"120.642000 ",
         "ar":"福星路/烈美街口",
         "sareaen":"Xitun Dist.",
         "snaen":"Wen Xiu Park",
         "aren":"Fuxing Rd & Liemei St Intersection",
         "bemp":"15",
         "act":"1"
      },
      "3225":{
         "sno":"3225",
         "sna":"北屯國小",
         "tot":"30",
         "sbi":"12",
         "sarea":"北屯區",
         "mday":"20180828105144",
         "lat":"24.164160 ",
         "lng":"120.690810 ",
         "ar":"國校巷/北興街口",
         "sareaen":"Beitun Dist.",
         "snaen":"Bei Tun Elementary School",
         "aren":"Guoxiao Ln & Beixing St Intersection",
         "bemp":"18",
         "act":"1"
      },
      "3226":{
         "sno":"3226",
         "sna":"上德公園",
         "tot":"32",
         "sbi":"17",
         "sarea":"西屯區",
         "mday":"20180828105140",
         "lat":"24.16931 ",
         "lng":"120.64451 ",
         "ar":"智惠街/上石路口",
         "sareaen":"Xitun Dist.",
         "snaen":"Shang De Park",
         "aren":"Shang De Park",
         "bemp":"15",
         "act":"1"
      },
      "3227":{
         "sno":"3227",
         "sna":"屯區藝文中心",
         "tot":"30",
         "sbi":"11",
         "sarea":"太平區",
         "mday":"20180828105141",
         "lat":"24.156600 ",
         "lng":"120.733740 ",
         "ar":"長安東路/長安路口",
         "sareaen":"Taiping Dist.",
         "snaen":"Taichung City Tun District Art Center",
         "aren":"Chang’an E. Rd & Chang’an Rd Intersection",
         "bemp":"19",
         "act":"1"
      },
      "3228":{
         "sno":"3228",
         "sna":"益民國小",
         "tot":"30",
         "sbi":"10",
         "sarea":"大里區",
         "mday":"20180828105129",
         "lat":"24.106740 ",
         "lng":"120.686730 ",
         "ar":"益民路二段/益民路二段81巷口",
         "sareaen":"Dali Dist.",
         "snaen":"Yi-Min Elementary School",
         "aren":"Ln. 171, Sec. 2 & Ln. 81, Sec. 2, Yimin Rd Intersection ",
         "bemp":"20",
         "act":"1"
      },